event_id,time,start_lon,start_lat,end_lon,end_lat,state,cz_name,cz_timezone,tor_f_scale,tor_f_scale_num,tor_length,tor_width,deaths_direct,injuries_direct,damage_property_num,source_file,data_year
865220,2020-01-04 10:29:00,-81.9234,28.7399,-81.8907,28.7589,FLORIDA,LAKE,EST-5,EF0,0.0,2.38,175.0,0,1,,StormEvents_details-ftp_v1.0_d2020_c20260323.csv.gz,2020
865221,2020-01-04 11:26:00,-81.3514,29.0023,-81.2841,29.0264,FLORIDA,VOLUSIA,EST-5,EF1,1.0,4.39,265.0,0,0,25000.0,StormEvents_details-ftp_v1.0_d2020_c20260323.csv.gz,2020
874056,2020-01-10 10:34:00,-96.6952,35.4864,-96.6814,35.5013,OKLAHOMA,LINCOLN,CST-6,EF0,0.0,1.3,10.0,0,0,25000.0,StormEvents_details-ftp_v1.0_d2020_c20260323.csv.gz,2020
874086,2020-01-10 11:55:00,-95.1771,36.0991,-95.1659,36.1163,OKLAHOMA,MAYES,CST-6,EFU,,1.0,50.0,0,0,0.0,StormEvents_details-ftp_v1.0_d2020_c20260323.csv.gz,2020
872580,2020-01-10 14:27:00,-93.6194,37.6057,-93.6147,37.611,MISSOURI,CEDAR,CST-6,EF1,1.0,0.45,50.0,0,0,0.0,StormEvents_details-ftp_v1.0_d2020_c20260323.csv.gz,2020
872581,2020-01-10 14:28:00,-93.6147,37.611,-93.5194,37.7037,MISSOURI,POLK,CST-6,EF1,1.0,8.25,50.0,0,0,500000.0,StormEvents_details-ftp_v1.0_d2020_c20260323.csv.gz,2020
873054,2020-01-10 14:46:00,-97.6375,33.0971,-97.6343,33.1023,TEXAS,WISE,CST-6,EF0,0.0,0.4,75.0,0,0,10000.0,StormEvents_details-ftp_v1.0_d2020_c20260323.csv.gz,2020
867121,2020-01-10 14:49:00,-95.0229,35.7796,-94.948,35.8369,OKLAHOMA,CHEROKEE,CST-6,EF1,1.0,5.8,250.0,0,0,50000.0,StormEvents_details-ftp_v1.0_d2020_c20260323.csv.gz,2020
872585,2020-01-10 15:20:00,-93.1863,38.0057,-93.1664,38.0222,MISSOURI,HICKORY,CST-6,EF1,1.0,1.57,100.0,0,0,45000.0,StormEvents_details-ftp_v1.0_d2020_c20260323.csv.gz,2020
873066,2020-01-10 17:41:00,-97.4673,32.4886,-97.4502,32.4934,TEXAS,JOHNSON,CST-6,EF1,1.0,1.05,250.0,0,0,20000.0,StormEvents_details-ftp_v1.0_d2020_c20260323.csv.gz,2020
872588,2020-01-10 17:42:00,-93.2016,37.2091,-93.115,37.283,MISSOURI,GREENE,CST-6,EF0,0.0,6.98,75.0,0,0,400000.0,StormEvents_details-ftp_v1.0_d2020_c20260323.csv.gz,2020
873070,2020-01-10 18:15:00,-95.7016,33.3727,-95.6965,33.3776,TEXAS,DELTA,CST-6,EF0,0.0,0.45,150.0,0,0,20000.0,StormEvents_details-ftp_v1.0_d2020_c20260323.csv.gz,2020
873061,2020-01-10 18:22:00,-95.6532,33.4254,-95.6513,33.4265,TEXAS,DELTA,CST-6,EF0,0.0,0.14,100.0,0,0,5000.0,StormEvents_details-ftp_v1.0_d2020_c20260323.csv.gz,2020
873085,2020-01-10 18:42:00,-96.9645,32.9067,-96.9492,32.9161,TEXAS,DALLAS,CST-6,EF0,0.0,1.1,175.0,0,0,15000.0,StormEvents_details-ftp_v1.0_d2020_c20260323.csv.gz,2020
873186,2020-01-10 19:44:00,-93.5999,35.2151,-93.4622,35.3784,ARKANSAS,LOGAN,CST-6,EF2,2.0,13.6,250.0,0,0,500000.0,StormEvents_details-ftp_v1.0_d2020_c20260323.csv.gz,2020
867123,2020-01-10 19:45:00,-93.8928,35.4262,-93.8244,35.4381,ARKANSAS,FRANKLIN,CST-6,EF1,1.0,3.9,400.0,0,0,35000.0,StormEvents_details-ftp_v1.0_d2020_c20260323.csv.gz,2020
866063,2020-01-10 21:34:00,-96.8042,30.4847,-96.8034,30.4861,TEXAS,BURLESON,CST-6,EF1,1.0,0.11,100.0,0,0,30000.0,StormEvents_details-ftp_v1.0_d2020_c20260323.csv.gz,2020
866536,2020-01-10 23:21:00,-95.1751,31.8177,-95.1646,31.825,TEXAS,CHEROKEE,CST-6,EF1,1.0,0.8,75.0,0,0,105000.0,StormEvents_details-ftp_v1.0_d2020_c20260323.csv.gz,2020
866540,2020-01-10 23:33:00,-94.7558,31.5832,-94.7197,31.5855,TEXAS,NACOGDOCHES,CST-6,EF1,1.0,2.13,160.0,1,1,75000.0,StormEvents_details-ftp_v1.0_d2020_c20260323.csv.gz,2020
866649,2020-01-10 23:43:00,-94.8427,31.8968,-94.7755,31.9194,TEXAS,RUSK,CST-6,EF1,1.0,4.24,500.0,0,0,80000.0,StormEvents_details-ftp_v1.0_d2020_c20260323.csv.gz,2020
866656,2020-01-10 23:53:00,-94.8401,31.4619,-94.8354,31.4638,TEXAS,ANGELINA,CST-6,EF1,1.0,0.31,150.0,0,0,60000.0,StormEvents_details-ftp_v1.0_d2020_c20260323.csv.gz,2020
866662,2020-01-11 00:18:00,-94.4356,32.3289,-94.4286,32.3336,TEXAS,PANOLA,CST-6,EF1,1.0,0.52,150.0,0,0,30000.0,StormEvents_details-ftp_v1.0_d2020_c20260323.csv.gz,2020
866665,2020-01-11 00:30:00,-94.2112,32.6402,-94.1626,32.6549,TEXAS,HARRISON,CST-6,EF0,0.0,3.0,100.0,0,0,15000.0,StormEvents_details-ftp_v1.0_d2020_c20260323.csv.gz,2020
866668,2020-01-11 00:39:00,-94.2021,31.773,-94.109,31.811,TEXAS,SHELBY,CST-6,EF1,1.0,6.07,400.0,0,1,500000.0,StormEvents_details-ftp_v1.0_d2020_c20260323.csv.gz,2020
866153,2020-01-11 00:52:00,-89.9968,37.5175,-89.9932,37.517,MISSOURI,BOLLINGER,CST-6,EF1,1.0,0.2,45.0,0,0,30000.0,StormEvents_details-ftp_v1.0_d2020_c20260323.csv.gz,2020
873191,2020-01-11 00:58:00,-91.8024,34.6013,-91.7949,34.6015,ARKANSAS,LONOKE,CST-6,EF1,1.0,0.43,130.0,0,0,40000.0,StormEvents_details-ftp_v1.0_d2020_c20260323.csv.gz,2020
866960,2020-01-11 01:24:00,-93.5875,32.4571,-93.4463,32.5039,LOUISIANA,BOSSIER,CST-6,EF2,2.0,8.84,300.0,3,0,500000.0,StormEvents_details-ftp_v1.0_d2020_c20260323.csv.gz,2020
866988,2020-01-11 01:32:00,-93.4463,32.5039,-93.1807,32.5945,LOUISIANA,WEBSTER,CST-6,EF2,2.0,16.69,300.0,0,0,750000.0,StormEvents_details-ftp_v1.0_d2020_c20260323.csv.gz,2020
866154,2020-01-11 01:46:00,-89.6118,37.35,-89.4632,37.4093,MISSOURI,CAPE GIRARDEAU,CST-6,EF2,2.0,9.13,300.0,0,0,750000.0,StormEvents_details-ftp_v1.0_d2020_c20260323.csv.gz,2020
867056,2020-01-11 01:50:00,-93.1807,32.5945,-92.9337,32.6218,LOUISIANA,CLAIBORNE,CST-6,EF2,2.0,6.26,300.0,0,0,75000.0,StormEvents_details-ftp_v1.0_d2020_c20260323.csv.gz,2020
866155,2020-01-11 02:02:00,-89.4021,37.446,-89.3872,37.45,ILLINOIS,UNION,CST-6,EF1,1.0,0.86,50.0,0,0,80000.0,StormEvents_details-ftp_v1.0_d2020_c20260323.csv.gz,2020
866687,2020-01-11 02:19:00,-92.5633,32.8654,-92.5189,32.889,LOUISIANA,UNION,CST-6,EF1,1.0,3.05,250.0,0,0,60000.0,StormEvents_details-ftp_v1.0_d2020_c20260323.csv.gz,2020
867833,2020-01-11 02:45:00,-92.0576,33.1768,-91.9813,33.1856,ARKANSAS,ASHLEY,CST-6,EF1,1.0,4.45,650.0,0,0,600000.0,StormEvents_details-ftp_v1.0_d2020_c20260323.csv.gz,2020
867835,2020-01-11 02:54:00,-91.9609,33.2576,-91.8033,33.256,ARKANSAS,ASHLEY,CST-6,EF1,1.0,9.11,800.0,0,0,800000.0,StormEvents_details-ftp_v1.0_d2020_c20260323.csv.gz,2020
867837,2020-01-11 02:55:00,-91.9441,33.1761,-91.766,33.1835,ARKANSAS,ASHLEY,CST-6,EF1,1.0,10.31,800.0,0,0,400000.0,StormEvents_details-ftp_v1.0_d2020_c20260323.csv.gz,2020
869290,2020-01-11 03:07:00,-91.7598,33.2638,-91.459,33.303,ARKANSAS,ASHLEY,CST-6,EF2,2.0,17.58,1000.0,0,0,2800000.0,StormEvents_details-ftp_v1.0_d2020_c20260323.csv.gz,2020
873192,2020-01-11 03:24:00,-91.4714,33.3949,-91.4579,33.398,ARKANSAS,DREW,CST-6,EF0,0.0,0.81,150.0,0,0,100000.0,StormEvents_details-ftp_v1.0_d2020_c20260323.csv.gz,2020
869291,2020-01-11 03:25:00,-91.459,33.303,-91.4088,33.3087,ARKANSAS,CHICOT,CST-6,EF1,1.0,2.93,900.0,0,0,200000.0,StormEvents_details-ftp_v1.0_d2020_c20260323.csv.gz,2020
869583,2020-01-11 03:33:00,-91.3129,33.3349,-91.183,33.385,ARKANSAS,CHICOT,CST-6,EF1,1.0,8.26,550.0,0,1,1000000.0,StormEvents_details-ftp_v1.0_d2020_c20260323.csv.gz,2020
867838,2020-01-11 03:36:00,-91.2845,33.3027,-91.2816,33.3023,ARKANSAS,CHICOT,CST-6,EF1,1.0,0.17,15.0,0,0,110000.0,StormEvents_details-ftp_v1.0_d2020_c20260323.csv.gz,2020
869585,2020-01-11 03:44:00,-91.183,33.385,-91.098,33.419,MISSISSIPPI,WASHINGTON,CST-6,EF0,0.0,5.44,200.0,0,0,5000.0,StormEvents_details-ftp_v1.0_d2020_c20260323.csv.gz,2020
867894,2020-01-11 03:48:00,-91.0602,33.6658,-90.6907,33.8076,MISSISSIPPI,BOLIVAR,CST-6,EF2,2.0,23.38,1800.0,0,4,3000000.0,StormEvents_details-ftp_v1.0_d2020_c20260323.csv.gz,2020
869584,2020-01-11 03:50:00,-91.098,33.419,-91.058,33.446,ARKANSAS,CHICOT,CST-6,EF1,1.0,2.97,200.0,0,0,10000.0,StormEvents_details-ftp_v1.0_d2020_c20260323.csv.gz,2020
869586,2020-01-11 03:52:00,-91.058,33.446,-91.0448,33.4551,MISSISSIPPI,WASHINGTON,CST-6,EF2,2.0,0.99,850.0,0,0,120000.0,StormEvents_details-ftp_v1.0_d2020_c20260323.csv.gz,2020
869014,2020-01-11 04:02:00,-90.8624,34.0377,-90.8124,34.0818,MISSISSIPPI,BOLIVAR,CST-6,EF1,1.0,4.18,880.0,0,0,350000.0,StormEvents_details-ftp_v1.0_d2020_c20260323.csv.gz,2020
867893,2020-01-11 04:07:00,-90.7434,33.8988,-90.7013,33.9105,MISSISSIPPI,BOLIVAR,CST-6,EF1,1.0,2.55,270.0,0,0,50000.0,StormEvents_details-ftp_v1.0_d2020_c20260323.csv.gz,2020
869010,2020-01-11 04:18:00,-90.5201,33.9183,-90.4579,33.9796,MISSISSIPPI,SUNFLOWER,CST-6,EF2,2.0,5.54,1700.0,0,0,700000.0,StormEvents_details-ftp_v1.0_d2020_c20260323.csv.gz,2020
869009,2020-01-11 04:19:00,-90.5682,33.8224,-90.4978,33.8749,MISSISSIPPI,SUNFLOWER,CST-6,EF2,2.0,5.43,850.0,0,0,80000.0,StormEvents_details-ftp_v1.0_d2020_c20260323.csv.gz,2020
874640,2020-01-11 04:26:00,-90.4099,33.9798,-90.3807,34.0013,MISSISSIPPI,TALLAHATCHIE,CST-6,EF0,0.0,2.24,100.0,0,0,50000.0,StormEvents_details-ftp_v1.0_d2020_c20260323.csv.gz,2020
874664,2020-01-11 04:38:00,-89.1916,36.3671,-89.1712,36.3885,TENNESSEE,OBION,CST-6,EF1,1.0,1.86,150.0,0,0,75000.0,StormEvents_details-ftp_v1.0_d2020_c20260323.csv.gz,2020
874679,2020-01-11 04:42:00,-90.1309,34.6979,-90.0827,34.7301,MISSISSIPPI,TATE,CST-6,EF0,0.0,3.53,200.0,0,0,10000.0,StormEvents_details-ftp_v1.0_d2020_c20260323.csv.gz,2020
874713,2020-01-11 04:45:00,-90.175,34.26,-90.1487,34.2744,MISSISSIPPI,QUITMAN,CST-6,EF1,1.0,1.8,150.0,0,0,50000.0,StormEvents_details-ftp_v1.0_d2020_c20260323.csv.gz,2020
874680,2020-01-11 04:45:00,-90.0827,34.7301,-89.9594,34.7778,MISSISSIPPI,DE SOTO,CST-6,EF1,1.0,7.74,200.0,0,0,600000.0,StormEvents_details-ftp_v1.0_d2020_c20260323.csv.gz,2020
874714,2020-01-11 04:47:00,-90.1487,34.2744,-90.0892,34.3011,MISSISSIPPI,PANOLA,CST-6,EF1,1.0,3.87,150.0,0,1,300000.0,StormEvents_details-ftp_v1.0_d2020_c20260323.csv.gz,2020
874723,2020-01-11 04:53:00,-89.9206,34.8576,-89.8018,34.9255,MISSISSIPPI,DE SOTO,CST-6,EF2,2.0,8.21,300.0,0,0,2600000.0,StormEvents_details-ftp_v1.0_d2020_c20260323.csv.gz,2020
874743,2020-01-11 05:04:00,-89.8584,34.5045,-89.7744,34.5539,MISSISSIPPI,PANOLA,CST-6,EF0,0.0,5.88,150.0,0,0,100000.0,StormEvents_details-ftp_v1.0_d2020_c20260323.csv.gz,2020
874744,2020-01-11 05:10:00,-89.7744,34.5539,-89.7579,34.5683,MISSISSIPPI,TATE,CST-6,EF0,0.0,1.37,150.0,0,0,10000.0,StormEvents_details-ftp_v1.0_d2020_c20260323.csv.gz,2020
866145,2020-01-11 05:17:00,-88.7049,36.6198,-88.6698,36.6256,KENTUCKY,GRAVES,CST-6,EF1,1.0,1.98,230.0,0,0,2000000.0,StormEvents_details-ftp_v1.0_d2020_c20260323.csv.gz,2020
874745,2020-01-11 05:21:00,-89.6108,34.655,-89.5184,34.6923,MISSISSIPPI,MARSHALL,CST-6,EF0,0.0,5.85,70.0,0,1,25000.0,StormEvents_details-ftp_v1.0_d2020_c20260323.csv.gz,2020
874750,2020-01-11 05:36:00,-89.3431,35.1294,-89.3148,35.1463,TENNESSEE,FAYETTE,CST-6,EF0,0.0,1.98,90.0,0,0,30000.0,StormEvents_details-ftp_v1.0_d2020_c20260323.csv.gz,2020
866146,2020-01-11 05:42:00,-88.3787,36.8522,-88.3578,36.8817,KENTUCKY,MARSHALL,CST-6,EF1,1.0,2.34,25.0,0,0,30000.0,StormEvents_details-ftp_v1.0_d2020_c20260323.csv.gz,2020
874754,2020-01-11 05:58:00,-88.8041,36.2574,-88.8027,36.2573,TENNESSEE,WEAKLEY,CST-6,EF0,0.0,0.08,75.0,0,0,15000.0,StormEvents_details-ftp_v1.0_d2020_c20260323.csv.gz,2020
872331,2020-01-11 06:04:00,-91.7641,30.5922,-91.7545,30.607,LOUISIANA,ST. LANDRY,CST-6,EF2,2.0,1.2,125.0,0,4,250000.0,StormEvents_details-ftp_v1.0_d2020_c20260323.csv.gz,2020
874950,2020-01-11 06:45:00,-88.7007,34.4938,-88.6488,34.5092,MISSISSIPPI,LEE,CST-6,EF0,0.0,3.14,100.0,0,0,75000.0,StormEvents_details-ftp_v1.0_d2020_c20260323.csv.gz,2020
874951,2020-01-11 06:48:00,-88.6488,34.5092,-88.5949,34.5483,MISSISSIPPI,PRENTISS,CST-6,EF1,1.0,4.09,100.0,0,0,125000.0,StormEvents_details-ftp_v1.0_d2020_c20260323.csv.gz,2020
866147,2020-01-11 06:50:00,-88.07,36.72,-87.99,36.73,KENTUCKY,TRIGG,CST-6,EF1,1.0,4.48,75.0,0,0,80000.0,StormEvents_details-ftp_v1.0_d2020_c20260323.csv.gz,2020
874952,2020-01-11 06:56:00,-88.5353,34.5963,-88.441,34.6864,MISSISSIPPI,PRENTISS,CST-6,EF1,1.0,8.22,150.0,0,0,75000.0,StormEvents_details-ftp_v1.0_d2020_c20260323.csv.gz,2020
866149,2020-01-11 07:00:00,-87.932,36.8321,-87.8577,36.8433,KENTUCKY,TRIGG,CST-6,EF0,0.0,4.18,50.0,0,0,50000.0,StormEvents_details-ftp_v1.0_d2020_c20260323.csv.gz,2020
866222,2020-01-11 07:05:00,-87.8431,36.9862,-87.72,37.02,KENTUCKY,CALDWELL,CST-6,EF1,1.0,7.18,250.0,0,0,100000.0,StormEvents_details-ftp_v1.0_d2020_c20260323.csv.gz,2020
874953,2020-01-11 07:08:00,-88.3934,34.7276,-88.3591,34.7555,MISSISSIPPI,PRENTISS,CST-6,EF1,1.0,2.74,120.0,0,0,15000.0,StormEvents_details-ftp_v1.0_d2020_c20260323.csv.gz,2020
874954,2020-01-11 07:11:00,-88.3591,34.7555,-88.3226,34.7862,MISSISSIPPI,TISHOMINGO,CST-6,EF1,1.0,2.97,120.0,0,0,75000.0,StormEvents_details-ftp_v1.0_d2020_c20260323.csv.gz,2020
866159,2020-01-11 07:12:00,-87.78,37.05,-87.7,37.05,KENTUCKY,CALDWELL,CST-6,EF0,0.0,4.41,175.0,0,0,50000.0,StormEvents_details-ftp_v1.0_d2020_c20260323.csv.gz,2020
866223,2020-01-11 07:14:00,-87.72,37.02,-87.67,37.03,KENTUCKY,CHRISTIAN,CST-6,EF1,1.0,2.84,250.0,0,0,50000.0,StormEvents_details-ftp_v1.0_d2020_c20260323.csv.gz,2020
866161,2020-01-11 07:16:00,-87.7,37.05,-87.65,37.07,KENTUCKY,CHRISTIAN,CST-6,EF1,1.0,3.08,175.0,0,0,80000.0,StormEvents_details-ftp_v1.0_d2020_c20260323.csv.gz,2020
874955,2020-01-11 07:17:00,-88.29,34.816,-88.2796,34.822,MISSISSIPPI,TISHOMINGO,CST-6,EF0,0.0,0.72,80.0,0,0,25000.0,StormEvents_details-ftp_v1.0_d2020_c20260323.csv.gz,2020
866156,2020-01-11 07:19:00,-87.6518,37.0565,-87.6134,37.087,KENTUCKY,CHRISTIAN,CST-6,EF1,1.0,2.98,200.0,0,0,80000.0,StormEvents_details-ftp_v1.0_d2020_c20260323.csv.gz,2020
866150,2020-01-11 07:34:00,-87.5107,36.6912,-87.3752,36.8064,KENTUCKY,CHRISTIAN,CST-6,EF1,1.0,10.94,100.0,0,0,250000.0,StormEvents_details-ftp_v1.0_d2020_c20260323.csv.gz,2020
866151,2020-01-11 07:40:00,-87.4434,36.8143,-87.4013,36.8313,KENTUCKY,CHRISTIAN,CST-6,EF1,1.0,2.61,50.0,0,0,15000.0,StormEvents_details-ftp_v1.0_d2020_c20260323.csv.gz,2020
869006,2020-01-11 09:33:00,-89.4785,32.3707,-89.4403,32.3988,MISSISSIPPI,SCOTT,CST-6,EF0,0.0,2.96,250.0,0,0,30000.0,StormEvents_details-ftp_v1.0_d2020_c20260323.csv.gz,2020
1298462,2020-01-11 10:33:00,-89.3831,30.3439,-89.36,30.368,MISSISSIPPI,HANCOCK,CST-6,EFU,,2.16,30.0,0,0,0.0,StormEvents_details-ftp_v1.0_d2020_c20260323.csv.gz,2020
871629,2020-01-11 11:11:00,-88.1545,33.2379,-88.1223,33.3253,ALABAMA,PICKENS,CST-6,EF2,2.0,6.33,1056.0,3,7,0.0,StormEvents_details-ftp_v1.0_d2020_c20260323.csv.gz,2020
870479,2020-01-11 13:03:00,-86.6197,34.1749,-86.619,34.1778,ALABAMA,CULLMAN,CST-6,EF0,0.0,0.21,80.0,0,0,,StormEvents_details-ftp_v1.0_d2020_c20260323.csv.gz,2020
870481,2020-01-11 13:13:00,-86.5571,34.3,-86.5481,34.3037,ALABAMA,CULLMAN,CST-6,EF1,1.0,0.58,60.0,0,0,,StormEvents_details-ftp_v1.0_d2020_c20260323.csv.gz,2020
870483,2020-01-11 13:14:00,-86.5481,34.3037,-86.5305,34.3148,ALABAMA,MARSHALL,CST-6,EF0,0.0,1.26,60.0,0,0,,StormEvents_details-ftp_v1.0_d2020_c20260323.csv.gz,2020
941645,2020-01-11 13:19:00,-86.4466,34.3974,-86.4463,34.4006,ALABAMA,MARSHALL,CST-6,EF2,2.0,0.22,150.0,0,0,,StormEvents_details-ftp_v1.0_d2020_c20260323.csv.gz,2020
871630,2020-01-11 16:33:00,-85.31,31.7633,-85.2285,31.8093,ALABAMA,BARBOUR,CST-6,EF1,1.0,5.8,275.0,0,0,0.0,StormEvents_details-ftp_v1.0_d2020_c20260323.csv.gz,2020
875802,2020-01-11 16:52:00,-84.7582,33.9108,-84.7236,33.9191,GEORGIA,PAULDING,EST-5,EF0,0.0,2.07,400.0,0,0,50000.0,StormEvents_details-ftp_v1.0_d2020_c20260323.csv.gz,2020
875803,2020-01-11 16:54:00,-84.7236,33.9191,-84.6948,33.9291,GEORGIA,COBB,EST-5,EF0,0.0,1.79,400.0,0,0,50000.0,StormEvents_details-ftp_v1.0_d2020_c20260323.csv.gz,2020
875805,2020-01-11 17:24:00,-84.1414,34.7415,-84.0938,34.7619,GEORGIA,FANNIN,EST-5,EF0,0.0,3.05,450.0,0,0,250000.0,StormEvents_details-ftp_v1.0_d2020_c20260323.csv.gz,2020
875804,2020-01-11 17:48:00,-84.5255,32.9134,-84.5198,32.9147,GEORGIA,UPSON,EST-5,EF1,1.0,0.34,100.0,0,0,200000.0,StormEvents_details-ftp_v1.0_d2020_c20260323.csv.gz,2020
864269,2020-01-11 17:55:00,-83.58,36.46,-83.58,36.46,TENNESSEE,CLAIBORNE,EST-5,EF0,0.0,3.3,30.0,0,0,,StormEvents_details-ftp_v1.0_d2020_c20260323.csv.gz,2020
871142,2020-01-11 20:04:00,-82.914,34.55,-82.908,34.554,SOUTH CAROLINA,ANDERSON,EST-5,EF0,0.0,0.44,30.0,0,0,1000.0,StormEvents_details-ftp_v1.0_d2020_c20260323.csv.gz,2020
871143,2020-01-11 20:06:00,-82.87,34.583,-82.867,34.586,SOUTH CAROLINA,ANDERSON,EST-5,EF0,0.0,0.27,50.0,0,0,0.0,StormEvents_details-ftp_v1.0_d2020_c20260323.csv.gz,2020
871145,2020-01-11 20:40:00,-82.259,34.182,-82.241,34.192,SOUTH CAROLINA,ABBEVILLE,EST-5,EF0,0.0,1.24,50.0,0,0,1000.0,StormEvents_details-ftp_v1.0_d2020_c20260323.csv.gz,2020
871144,2020-01-11 20:40:00,-82.472,34.68,-82.468,34.689,SOUTH CAROLINA,ANDERSON,EST-5,EF0,0.0,0.66,160.0,0,0,1000.0,StormEvents_details-ftp_v1.0_d2020_c20260323.csv.gz,2020
871146,2020-01-11 20:42:00,-82.24,34.192,-82.222,34.201,SOUTH CAROLINA,GREENWOOD,EST-5,EF0,0.0,1.2,50.0,0,0,0.0,StormEvents_details-ftp_v1.0_d2020_c20260323.csv.gz,2020
871147,2020-01-11 20:45:00,-82.208,34.239,-82.201,34.244,SOUTH CAROLINA,GREENWOOD,EST-5,EF0,0.0,0.53,30.0,0,0,0.0,StormEvents_details-ftp_v1.0_d2020_c20260323.csv.gz,2020
864254,2020-01-11 22:11:00,-84.2271,40.0305,-84.1776,40.0545,OHIO,MIAMI,EST-5,EF0,0.0,3.1,350.0,0,0,500000.0,StormEvents_details-ftp_v1.0_d2020_c20260323.csv.gz,2020
864255,2020-01-11 22:15:00,-84.1758,40.106,-84.0774,40.1585,OHIO,MIAMI,EST-5,EF0,0.0,6.34,175.0,0,0,50000.0,StormEvents_details-ftp_v1.0_d2020_c20260323.csv.gz,2020
864514,2020-01-11 22:33:00,-80.5303,34.4293,-80.523,34.4346,SOUTH CAROLINA,KERSHAW,EST-5,EF2,2.0,0.55,150.0,0,0,,StormEvents_details-ftp_v1.0_d2020_c20260323.csv.gz,2020
871199,2020-01-13 12:45:00,-78.8659,34.0423,-78.8464,34.0492,SOUTH CAROLINA,HORRY,EST-5,EF0,0.0,1.21,45.0,0,0,200000.0,StormEvents_details-ftp_v1.0_d2020_c20260323.csv.gz,2020
875806,2020-01-13 23:51:00,-84.3921,33.1469,-84.3722,33.1598,GEORGIA,PIKE,EST-5,EF0,0.0,1.46,100.0,0,0,25000.0,StormEvents_details-ftp_v1.0_d2020_c20260323.csv.gz,2020
875807,2020-01-14 00:20:00,-84.1929,33.2509,-84.188,33.251,GEORGIA,SPALDING,EST-5,EF0,0.0,0.28,50.0,0,0,24000.0,StormEvents_details-ftp_v1.0_d2020_c20260323.csv.gz,2020
874011,2020-01-28 15:15:00,-97.1457,31.7094,-97.1186,31.7194,TEXAS,MCLENNAN,CST-6,EF0,0.0,1.74,10.0,0,0,2000.0,StormEvents_details-ftp_v1.0_d2020_c20260323.csv.gz,2020
871057,2020-01-31 22:35:00,-81.123,25.464,-81.075,25.516,FLORIDA,MONROE,EST-5,EFU,,4.68,50.0,0,0,0.0,StormEvents_details-ftp_v1.0_d2020_c20260323.csv.gz,2020
874690,2020-02-05 14:57:00,-89.752,31.9546,-89.6654,32.0055,MISSISSIPPI,SIMPSON,CST-6,EF1,1.0,6.17,150.0,0,0,200000.0,StormEvents_details-ftp_v1.0_d2020_c20260323.csv.gz,2020
874691,2020-02-05 15:20:00,-89.5363,32.0906,-89.504,32.1173,MISSISSIPPI,SMITH,CST-6,EF2,2.0,2.64,440.0,0,0,20000.0,StormEvents_details-ftp_v1.0_d2020_c20260323.csv.gz,2020
874692,2020-02-05 15:28:00,-90.4403,32.6797,-90.3186,32.7374,MISSISSIPPI,YAZOO,CST-6,EF1,1.0,8.12,800.0,0,0,45000.0,StormEvents_details-ftp_v1.0_d2020_c20260323.csv.gz,2020
874693,2020-02-05 15:57:00,-90.0995,32.8169,-89.967,32.88,MISSISSIPPI,YAZOO,CST-6,EF2,2.0,8.84,900.0,0,4,100000.0,StormEvents_details-ftp_v1.0_d2020_c20260323.csv.gz,2020
874694,2020-02-05 16:07:00,-89.967,32.88,-89.9667,32.8801,MISSISSIPPI,HOLMES,CST-6,EF2,2.0,0.02,300.0,0,0,1000.0,StormEvents_details-ftp_v1.0_d2020_c20260323.csv.gz,2020
874695,2020-02-05 16:08:00,-89.9667,32.8801,-89.8099,32.9356,MISSISSIPPI,ATTALA,CST-6,EF2,2.0,9.87,900.0,0,0,25000.0,StormEvents_details-ftp_v1.0_d2020_c20260323.csv.gz,2020
874696,2020-02-05 16:46:00,-89.501,33.0678,-89.4732,33.0735,MISSISSIPPI,ATTALA,CST-6,EF1,1.0,1.66,300.0,0,0,50000.0,StormEvents_details-ftp_v1.0_d2020_c20260323.csv.gz,2020
874697,2020-02-05 16:58:00,-89.3761,33.1175,-89.3178,33.1454,MISSISSIPPI,ATTALA,CST-6,EF2,2.0,3.89,800.0,0,0,250000.0,StormEvents_details-ftp_v1.0_d2020_c20260323.csv.gz,2020
874698,2020-02-05 17:02:00,-89.3178,33.1454,-89.2851,33.1523,MISSISSIPPI,CHOCTAW,CST-6,EF1,1.0,1.95,200.0,0,0,5000.0,StormEvents_details-ftp_v1.0_d2020_c20260323.csv.gz,2020
870415,2020-02-05 17:18:00,-88.1282,34.6617,-88.1055,34.6648,ALABAMA,COLBERT,CST-6,EF1,1.0,1.32,60.0,0,0,,StormEvents_details-ftp_v1.0_d2020_c20260323.csv.gz,2020
874699,2020-02-05 17:33:00,-89.6748,32.6636,-89.5284,32.7112,MISSISSIPPI,LEAKE,CST-6,EF1,1.0,9.13,250.0,0,0,55000.0,StormEvents_details-ftp_v1.0_d2020_c20260323.csv.gz,2020
874700,2020-02-05 17:50:00,-89.476,32.7049,-89.4007,32.7372,MISSISSIPPI,LEAKE,CST-6,EF1,1.0,4.91,150.0,0,0,40000.0,StormEvents_details-ftp_v1.0_d2020_c20260323.csv.gz,2020
878856,2020-02-05 17:55:00,-87.4657,35.0718,-87.2976,35.1165,TENNESSEE,LAWRENCE,CST-6,EF1,1.0,10.05,300.0,0,0,20000.0,StormEvents_details-ftp_v1.0_d2020_c20260323.csv.gz,2020
878857,2020-02-05 17:56:00,-87.3984,35.223,-87.2192,35.2624,TENNESSEE,LAWRENCE,CST-6,EF1,1.0,10.51,300.0,0,1,100000.0,StormEvents_details-ftp_v1.0_d2020_c20260323.csv.gz,2020
878870,2020-02-05 18:47:00,-86.5358,35.5495,-86.3696,35.6061,TENNESSEE,BEDFORD,CST-6,EF0,0.0,10.36,50.0,0,0,10000.0,StormEvents_details-ftp_v1.0_d2020_c20260323.csv.gz,2020
878873,2020-02-05 19:23:00,-85.9171,35.7451,-85.8166,35.7844,TENNESSEE,WARREN,CST-6,EF0,0.0,6.34,50.0,0,0,10000.0,StormEvents_details-ftp_v1.0_d2020_c20260323.csv.gz,2020
879102,2020-02-05 19:55:00,-85.5413,35.9009,-85.4738,35.9004,TENNESSEE,WHITE,CST-6,EF1,1.0,3.86,200.0,0,0,25000.0,StormEvents_details-ftp_v1.0_d2020_c20260323.csv.gz,2020
879103,2020-02-05 20:02:00,-85.4209,35.9527,-85.307,35.9562,TENNESSEE,WHITE,CST-6,EF1,1.0,6.39,250.0,0,0,15000.0,StormEvents_details-ftp_v1.0_d2020_c20260323.csv.gz,2020
874702,2020-02-05 22:51:00,-89.2971,31.9406,-88.914,32.1428,MISSISSIPPI,JASPER,CST-6,EF2,2.0,26.43,1320.0,0,0,2400000.0,StormEvents_details-ftp_v1.0_d2020_c20260323.csv.gz,2020
874704,2020-02-05 23:21:00,-88.914,32.1428,-88.7627,32.2249,MISSISSIPPI,CLARKE,CST-6,EF2,2.0,10.51,1000.0,0,0,500000.0,StormEvents_details-ftp_v1.0_d2020_c20260323.csv.gz,2020
874705,2020-02-05 23:30:00,-88.7627,32.2249,-88.4244,32.3928,MISSISSIPPI,LAUDERDALE,CST-6,EF1,1.0,22.91,850.0,0,0,1000000.0,StormEvents_details-ftp_v1.0_d2020_c20260323.csv.gz,2020
878235,2020-02-06 01:57:00,-86.9753,33.2015,-86.8503,33.2954,ALABAMA,SHELBY,CST-6,EF2,2.0,9.91,700.0,0,0,0.0,StormEvents_details-ftp_v1.0_d2020_c20260323.csv.gz,2020
878237,2020-02-06 02:13:00,-87.8012,32.4617,-87.7834,32.4725,ALABAMA,MARENGO,CST-6,EF1,1.0,1.29,400.0,1,1,0.0,StormEvents_details-ftp_v1.0_d2020_c20260323.csv.gz,2020
875896,2020-02-06 05:28:00,-84.8631,34.3951,-84.8576,34.3968,GEORGIA,BARTOW,EST-5,EF0,0.0,0.33,200.0,0,0,10000.0,StormEvents_details-ftp_v1.0_d2020_c20260323.csv.gz,2020
875897,2020-02-06 05:29:00,-84.8576,34.3968,-84.8256,34.405,GEORGIA,GORDON,EST-5,EF0,0.0,1.91,200.0,0,0,50000.0,StormEvents_details-ftp_v1.0_d2020_c20260323.csv.gz,2020
871936,2020-02-06 09:45:00,-81.587,35.416,-81.475,35.461,NORTH CAROLINA,CLEVELAND,EST-5,EF1,1.0,7.03,100.0,0,0,250000.0,StormEvents_details-ftp_v1.0_d2020_c20260323.csv.gz,2020
871937,2020-02-06 09:58:00,-81.474,35.461,-81.467,35.464,NORTH CAROLINA,LINCOLN,EST-5,EF0,0.0,0.45,100.0,0,0,0.0,StormEvents_details-ftp_v1.0_d2020_c20260323.csv.gz,2020
874596,2020-02-06 10:21:00,-82.03,34.926,-81.86,34.972,SOUTH CAROLINA,SPARTANBURG,EST-5,EF1,1.0,10.14,100.0,0,0,10000000.0,StormEvents_details-ftp_v1.0_d2020_c20260323.csv.gz,2020
871938,2020-02-06 10:55:00,-81.413,35.177,-81.325,35.196,NORTH CAROLINA,CLEVELAND,EST-5,EF2,2.0,5.14,150.0,0,0,750000.0,StormEvents_details-ftp_v1.0_d2020_c20260323.csv.gz,2020
871939,2020-02-06 11:01:00,-81.323,35.196,-81.261,35.191,NORTH CAROLINA,GASTON,EST-5,EF1,1.0,3.52,150.0,0,0,0.0,StormEvents_details-ftp_v1.0_d2020_c20260323.csv.gz,2020
871942,2020-02-06 11:40:00,-80.564,35.498,-80.454,35.497,NORTH CAROLINA,CABARRUS,EST-5,EF2,2.0,6.19,75.0,0,0,500000.0,StormEvents_details-ftp_v1.0_d2020_c20260323.csv.gz,2020
871943,2020-02-06 11:55:00,-80.351,35.509,-80.324,35.507,NORTH CAROLINA,ROWAN,EST-5,EF0,0.0,1.52,50.0,0,0,0.0,StormEvents_details-ftp_v1.0_d2020_c20260323.csv.gz,2020
871940,2020-02-06 12:16:00,-80.917,35.094,-80.653,35.127,NORTH CAROLINA,MECKLENBURG,EST-5,EF1,1.0,15.09,150.0,0,0,500000.0,StormEvents_details-ftp_v1.0_d2020_c20260323.csv.gz,2020
875040,2020-02-06 12:31:00,-79.6473,35.8501,-79.6405,35.8509,NORTH CAROLINA,RANDOLPH,EST-5,EF1,1.0,0.38,100.0,0,0,250000.0,StormEvents_details-ftp_v1.0_d2020_c20260323.csv.gz,2020
871941,2020-02-06 12:32:00,-80.651,35.127,-80.615,35.132,NORTH CAROLINA,UNION,EST-5,EF1,1.0,2.06,150.0,0,0,0.0,StormEvents_details-ftp_v1.0_d2020_c20260323.csv.gz,2020
875052,2020-02-06 12:42:00,-80.3361,35.362,-80.2068,35.373,NORTH CAROLINA,STANLY,EST-5,EF1,1.0,7.32,400.0,0,0,500000.0,StormEvents_details-ftp_v1.0_d2020_c20260323.csv.gz,2020
867958,2020-02-06 14:52:00,-81.8037,33.6423,-81.7862,33.6499,SOUTH CAROLINA,AIKEN,EST-5,EF1,1.0,1.14,75.0,0,0,,StormEvents_details-ftp_v1.0_d2020_c20260323.csv.gz,2020
874764,2020-02-06 15:32:00,-76.82,36.4298,-76.7685,36.4425,NORTH CAROLINA,GATES,EST-5,EF0,0.0,2.99,75.0,0,0,100000.0,StormEvents_details-ftp_v1.0_d2020_c20260323.csv.gz,2020
870737,2020-02-06 21:05:00,-82.3642,31.208,-82.3612,31.2078,GEORGIA,WARE,EST-5,EF0,0.0,0.18,50.0,0,0,0.0,StormEvents_details-ftp_v1.0_d2020_c20260323.csv.gz,2020
870288,2020-02-06 22:38:00,-82.7898,27.8645,-82.6464,27.8771,FLORIDA,PINELLAS,EST-5,EF0,0.0,9.24,50.0,0,1,200000.0,StormEvents_details-ftp_v1.0_d2020_c20260323.csv.gz,2020
878117,2020-02-07 07:20:00,-77.5874,39.0946,-77.5431,39.1291,VIRGINIA,LOUDOUN,EST-5,EF0,0.0,3.36,250.0,0,0,5780000.0,StormEvents_details-ftp_v1.0_d2020_c20260323.csv.gz,2020
878797,2020-02-07 07:28:00,-77.4827,39.1763,-77.4633,39.1819,MARYLAND,MONTGOMERY,EST-5,EF1,1.0,1.11,150.0,0,0,92000.0,StormEvents_details-ftp_v1.0_d2020_c20260323.csv.gz,2020
878801,2020-02-07 07:38:00,-77.3464,39.1301,-77.3113,39.1431,MARYLAND,MONTGOMERY,EST-5,EF0,0.0,2.08,75.0,0,0,70000.0,StormEvents_details-ftp_v1.0_d2020_c20260323.csv.gz,2020
878812,2020-02-07 07:44:00,-77.2758,39.3427,-77.1917,39.4155,MARYLAND,FREDERICK,EST-5,EF1,1.0,6.74,150.0,0,0,340000.0,StormEvents_details-ftp_v1.0_d2020_c20260323.csv.gz,2020
878819,2020-02-07 08:03:00,-77.031,39.562,-76.886,39.661,MARYLAND,CARROLL,EST-5,EF1,1.0,10.31,100.0,0,0,574000.0,StormEvents_details-ftp_v1.0_d2020_c20260323.csv.gz,2020
877911,2020-02-07 09:39:00,-75.82,39.65,-75.8,39.65,MARYLAND,CECIL,EST-5,EF1,1.0,1.06,200.0,0,0,,StormEvents_details-ftp_v1.0_d2020_c20260323.csv.gz,2020
878601,2020-02-10 18:08:00,-88.7851,31.4082,-88.7697,31.4195,MISSISSIPPI,GREENE,CST-6,EF1,1.0,1.2,200.0,0,0,,StormEvents_details-ftp_v1.0_d2020_c20260323.csv.gz,2020
877070,2020-02-10 20:51:00,-90.555,32.5019,-90.549,32.51,MISSISSIPPI,HINDS,CST-6,EF0,0.0,0.66,75.0,0,0,3000.0,StormEvents_details-ftp_v1.0_d2020_c20260323.csv.gz,2020
877072,2020-02-10 20:52:00,-90.549,32.51,-90.5305,32.5378,MISSISSIPPI,YAZOO,CST-6,EF1,1.0,2.2,300.0,0,0,20000.0,StormEvents_details-ftp_v1.0_d2020_c20260323.csv.gz,2020
870414,2020-02-12 17:13:00,-87.5054,34.9674,-87.4424,34.9837,ALABAMA,LAUDERDALE,CST-6,EF1,1.0,3.75,400.0,0,0,,StormEvents_details-ftp_v1.0_d2020_c20260323.csv.gz,2020
879130,2020-02-12 17:27:00,-87.2934,35.0583,-87.2616,35.0662,TENNESSEE,LAWRENCE,CST-6,EF0,0.0,1.89,100.0,0,0,10000.0,StormEvents_details-ftp_v1.0_d2020_c20260323.csv.gz,2020
878437,2020-02-13 04:12:00,-85.9171,33.0162,-85.8819,33.0162,ALABAMA,TALLAPOOSA,CST-6,EF1,1.0,2.1,300.0,0,0,0.0,StormEvents_details-ftp_v1.0_d2020_c20260323.csv.gz,2020
874370,2020-03-02 20:00:00,-87.5005,37.0335,-87.4009,37.0278,KENTUCKY,CHRISTIAN,CST-6,EF1,1.0,5.51,400.0,0,0,80000.0,StormEvents_details-ftp_v1.0_d2020_c20260323.csv.gz,2020
880407,2020-03-02 22:12:00,-88.8275,36.0323,-88.7,36.0534,TENNESSEE,GIBSON,CST-6,EF1,1.0,7.27,100.0,0,0,250000.0,StormEvents_details-ftp_v1.0_d2020_c20260323.csv.gz,2020
874933,2020-03-02 22:15:00,-89.9,36.57,-89.8449,36.5712,MISSOURI,NEW MADRID,CST-6,EF0,0.0,3.06,50.0,0,0,0.0,StormEvents_details-ftp_v1.0_d2020_c20260323.csv.gz,2020
880428,2020-03-02 22:41:00,-88.5287,36.0811,-88.2637,36.0792,TENNESSEE,CARROLL,CST-6,EF2,2.0,14.8,100.0,0,0,500000.0,StormEvents_details-ftp_v1.0_d2020_c20260323.csv.gz,2020
880546,2020-03-02 23:05:00,-88.1189,36.0928,-87.94,36.1028,TENNESSEE,BENTON,CST-6,EF2,2.0,10.01,250.0,1,2,1000000.0,StormEvents_details-ftp_v1.0_d2020_c20260323.csv.gz,2020
882955,2020-03-02 23:20:00,-87.9387,36.1064,-87.7838,36.1074,TENNESSEE,HUMPHREYS,CST-6,EF1,1.0,8.71,200.0,0,0,100000.0,StormEvents_details-ftp_v1.0_d2020_c20260323.csv.gz,2020
882957,2020-03-02 23:42:00,-87.6482,36.1162,-87.5629,36.1231,TENNESSEE,HUMPHREYS,CST-6,EF0,0.0,4.8,50.0,0,0,25000.0,StormEvents_details-ftp_v1.0_d2020_c20260323.csv.gz,2020
883133,2020-03-03 00:15:00,-86.3176,36.849,-86.2918,36.8537,KENTUCKY,WARREN,CST-6,EF2,2.0,2.0,250.0,0,0,200000.0,StormEvents_details-ftp_v1.0_d2020_c20260323.csv.gz,2020
883403,2020-03-03 00:17:00,-86.2918,36.8537,-86.2773,36.8539,KENTUCKY,ALLEN,CST-6,EF1,1.0,0.7,250.0,0,0,0.0,StormEvents_details-ftp_v1.0_d2020_c20260323.csv.gz,2020
882999,2020-03-03 00:32:00,-86.9562,36.1717,-86.5717,36.1767,TENNESSEE,DAVIDSON,CST-6,EF3,3.0,21.49,1150.0,2,170,1090000000.0,StormEvents_details-ftp_v1.0_d2020_c20260323.csv.gz,2020
883007,2020-03-03 00:54:00,-86.5717,36.1767,-86.0981,36.192,TENNESSEE,WILSON,CST-6,EF3,3.0,26.65,1600.0,3,50,409000000.0,StormEvents_details-ftp_v1.0_d2020_c20260323.csv.gz,2020
883009,2020-03-03 01:19:00,-86.0981,36.192,-85.8904,36.1525,TENNESSEE,SMITH,CST-6,EF1,1.0,11.99,900.0,0,0,5000000.0,StormEvents_details-ftp_v1.0_d2020_c20260323.csv.gz,2020
883012,2020-03-03 01:38:00,-85.8056,36.1603,-85.7479,36.1711,TENNESSEE,PUTNAM,CST-6,EF0,0.0,3.32,50.0,0,0,15000.0,StormEvents_details-ftp_v1.0_d2020_c20260323.csv.gz,2020
883016,2020-03-03 01:48:00,-85.6628,36.1715,-85.5135,36.1709,TENNESSEE,PUTNAM,CST-6,EF4,4.0,8.39,900.0,19,87,100000000.0,StormEvents_details-ftp_v1.0_d2020_c20260323.csv.gz,2020
883034,2020-03-03 02:05:00,-85.4461,36.1075,-85.442,36.1068,TENNESSEE,PUTNAM,CST-6,EF0,0.0,0.23,25.0,0,0,5000.0,StormEvents_details-ftp_v1.0_d2020_c20260323.csv.gz,2020
883048,2020-03-03 02:25:00,-85.0401,36.1399,-84.8619,36.1243,TENNESSEE,CUMBERLAND,CST-6,EF2,2.0,10.07,500.0,0,0,50000.0,StormEvents_details-ftp_v1.0_d2020_c20260323.csv.gz,2020
871306,2020-03-03 03:40:00,-84.799,36.1264,-84.733,36.1264,TENNESSEE,MORGAN,EST-5,EF0,0.0,3.68,200.0,0,0,,StormEvents_details-ftp_v1.0_d2020_c20260323.csv.gz,2020
882926,2020-03-03 06:04:00,-87.6226,32.6846,-87.5492,32.6863,ALABAMA,HALE,CST-6,EF0,0.0,4.34,220.0,0,0,0.0,StormEvents_details-ftp_v1.0_d2020_c20260323.csv.gz,2020
882927,2020-03-03 06:28:00,-87.0496,32.8648,-86.9432,32.8647,ALABAMA,BIBB,CST-6,EF1,1.0,6.21,525.0,0,0,0.0,StormEvents_details-ftp_v1.0_d2020_c20260323.csv.gz,2020
880949,2020-03-04 04:39:00,-89.7644,31.6406,-89.756,31.642,MISSISSIPPI,JEFFERSON DAVIS,CST-6,EF0,0.0,0.5,200.0,0,0,1000.0,StormEvents_details-ftp_v1.0_d2020_c20260323.csv.gz,2020
880950,2020-03-04 04:40:00,-89.755,31.642,-89.6057,31.6317,MISSISSIPPI,COVINGTON,CST-6,EF0,0.0,8.81,400.0,0,0,25000.0,StormEvents_details-ftp_v1.0_d2020_c20260323.csv.gz,2020
875076,2020-03-12 16:17:00,-90.6777,36.8794,-90.6726,36.8748,MISSOURI,CARTER,CST-6,EF0,0.0,0.42,75.0,0,0,5000.0,StormEvents_details-ftp_v1.0_d2020_c20260323.csv.gz,2020
875077,2020-03-12 16:20:00,-90.6234,36.8571,-90.6141,36.8527,MISSOURI,BUTLER,CST-6,EF0,0.0,0.6,100.0,0,0,5000.0,StormEvents_details-ftp_v1.0_d2020_c20260323.csv.gz,2020
872119,2020-03-12 21:07:00,-84.48,36.73,-84.45,36.73,KENTUCKY,MCCREARY,EST-5,EF1,1.0,1.66,175.0,0,0,150000.0,StormEvents_details-ftp_v1.0_d2020_c20260323.csv.gz,2020
875451,2020-03-13 14:15:00,-105.9581,32.8211,-105.9566,32.8304,NEW MEXICO,OTERO,MST-7,EF0,0.0,0.58,50.0,0,0,25000.0,StormEvents_details-ftp_v1.0_d2020_c20260323.csv.gz,2020
874513,2020-03-13 18:53:00,-103.73,31.6892,-103.6578,31.7099,TEXAS,REEVES,CST-6,EFU,,4.48,300.0,0,0,,StormEvents_details-ftp_v1.0_d2020_c20260323.csv.gz,2020
874514,2020-03-13 18:57:00,-103.6578,31.7099,-103.5833,31.7247,TEXAS,LOVING,CST-6,EFU,,4.49,300.0,0,0,,StormEvents_details-ftp_v1.0_d2020_c20260323.csv.gz,2020
874917,2020-03-13 19:13:00,-103.4143,31.4747,-103.4117,31.4811,TEXAS,WARD,CST-6,EF1,1.0,0.47,20.0,0,0,50000.0,StormEvents_details-ftp_v1.0_d2020_c20260323.csv.gz,2020
880549,2020-03-17 15:25:00,-99.28,33.26,-99.2787,33.26,TEXAS,THROCKMORTON,CST-6,EFU,,0.07,35.0,0,0,0.0,StormEvents_details-ftp_v1.0_d2020_c20260323.csv.gz,2020
872132,2020-03-17 16:21:00,-103.0512,34.5674,-103.0445,34.5712,NEW MEXICO,CURRY,MST-7,EF0,0.0,0.46,100.0,0,0,0.0,StormEvents_details-ftp_v1.0_d2020_c20260323.csv.gz,2020
881043,2020-03-18 19:56:00,-98.0475,33.1659,-98.0175,33.174,TEXAS,JACK,CST-6,EF0,0.0,1.82,55.0,0,0,25000.0,StormEvents_details-ftp_v1.0_d2020_c20260323.csv.gz,2020
881044,2020-03-18 20:04:00,-98.9049,32.9074,-98.8939,32.9274,TEXAS,STEPHENS,CST-6,EF0,0.0,1.52,12.0,0,0,0.0,StormEvents_details-ftp_v1.0_d2020_c20260323.csv.gz,2020
881051,2020-03-18 20:20:00,-97.8992,33.2501,-97.8354,33.2732,TEXAS,WISE,CST-6,EF0,0.0,4.02,575.0,0,0,70000.0,StormEvents_details-ftp_v1.0_d2020_c20260323.csv.gz,2020
881055,2020-03-18 20:24:00,-98.6704,33.0032,-98.599,33.0455,TEXAS,YOUNG,CST-6,EF0,0.0,5.19,375.0,0,2,,StormEvents_details-ftp_v1.0_d2020_c20260323.csv.gz,2020
881056,2020-03-18 20:36:00,-98.546,33.0367,-98.5458,33.0591,TEXAS,YOUNG,CST-6,EF0,0.0,1.55,120.0,0,1,3000.0,StormEvents_details-ftp_v1.0_d2020_c20260323.csv.gz,2020
881057,2020-03-18 21:07:00,-97.6198,33.4159,-97.6104,33.423,TEXAS,WISE,CST-6,EF0,0.0,0.81,100.0,0,0,1000.0,StormEvents_details-ftp_v1.0_d2020_c20260323.csv.gz,2020
881058,2020-03-18 21:21:00,-98.2887,33.1628,-98.2774,33.1649,TEXAS,JACK,CST-6,EF0,0.0,0.67,46.0,0,0,0.0,StormEvents_details-ftp_v1.0_d2020_c20260323.csv.gz,2020
880449,2020-03-19 00:00:00,-100.2189,32.3101,-100.1489,32.343,TEXAS,NOLAN,CST-6,EF2,2.0,4.68,425.0,0,0,2000000.0,StormEvents_details-ftp_v1.0_d2020_c20260323.csv.gz,2020
880442,2020-03-19 00:07:00,-100.1489,32.343,-100.0534,32.3816,TEXAS,TAYLOR,CST-6,EF2,2.0,6.18,425.0,0,0,0.0,StormEvents_details-ftp_v1.0_d2020_c20260323.csv.gz,2020
880531,2020-03-19 00:30:00,-99.8697,32.4388,-99.8662,32.4404,TEXAS,TAYLOR,CST-6,EF1,1.0,0.23,35.0,0,0,60000.0,StormEvents_details-ftp_v1.0_d2020_c20260323.csv.gz,2020
880532,2020-03-19 00:43:00,-99.6739,32.5335,-99.6096,32.5726,TEXAS,JONES,CST-6,EF2,2.0,4.62,135.0,0,0,0.0,StormEvents_details-ftp_v1.0_d2020_c20260323.csv.gz,2020
880553,2020-03-19 00:49:00,-99.6096,32.5726,-99.6,32.58,TEXAS,SHACKELFORD,CST-6,EFU,,0.76,135.0,0,0,0.0,StormEvents_details-ftp_v1.0_d2020_c20260323.csv.gz,2020
883627,2020-03-19 00:53:00,-96.4798,36.0019,-96.4736,36.0082,OKLAHOMA,CREEK,CST-6,EF0,0.0,0.6,75.0,0,0,35000.0,StormEvents_details-ftp_v1.0_d2020_c20260323.csv.gz,2020
883628,2020-03-19 09:25:00,-96.3287,35.4043,-96.2854,35.4179,OKLAHOMA,OKFUSKEE,CST-6,EF1,1.0,2.7,225.0,0,0,30000.0,StormEvents_details-ftp_v1.0_d2020_c20260323.csv.gz,2020
875714,2020-03-19 14:44:00,-89.2442,38.0649,-89.1904,38.0826,ILLINOIS,PERRY,CST-6,EF1,1.0,3.17,125.0,0,1,300000.0,StormEvents_details-ftp_v1.0_d2020_c20260323.csv.gz,2020
875715,2020-03-19 15:22:00,-88.712,38.191,-88.7033,38.1959,ILLINOIS,JEFFERSON,CST-6,EF0,0.0,0.58,75.0,0,0,3000.0,StormEvents_details-ftp_v1.0_d2020_c20260323.csv.gz,2020
875716,2020-03-19 15:23:00,-88.7033,38.1959,-88.6661,38.2124,ILLINOIS,HAMILTON,CST-6,EF1,1.0,2.32,300.0,0,0,125000.0,StormEvents_details-ftp_v1.0_d2020_c20260323.csv.gz,2020
881951,2020-03-19 17:50:00,-92.9381,36.1352,-92.741,36.22,ARKANSAS,BOONE,CST-6,EF2,2.0,12.5,500.0,0,1,275000.0,StormEvents_details-ftp_v1.0_d2020_c20260323.csv.gz,2020
881958,2020-03-19 18:30:00,-92.4768,36.3302,-92.4413,36.3425,ARKANSAS,BAXTER,CST-6,EF1,1.0,2.16,600.0,0,0,120000.0,StormEvents_details-ftp_v1.0_d2020_c20260323.csv.gz,2020
881946,2020-03-19 19:09:00,-92.9439,35.5283,-92.9309,35.5334,ARKANSAS,POPE,CST-6,EF1,1.0,0.81,300.0,0,0,0.0,StormEvents_details-ftp_v1.0_d2020_c20260323.csv.gz,2020
881947,2020-03-19 19:23:00,-92.8366,35.5925,-92.7974,35.6172,ARKANSAS,POPE,CST-6,EF1,1.0,2.79,200.0,0,0,20000.0,StormEvents_details-ftp_v1.0_d2020_c20260323.csv.gz,2020
881945,2020-03-19 21:07:00,-91.561,36.1124,-91.4672,36.1374,ARKANSAS,SHARP,CST-6,EF1,1.0,5.67,400.0,0,0,20000.0,StormEvents_details-ftp_v1.0_d2020_c20260323.csv.gz,2020
873392,2020-03-21 13:30:00,-108.2774,36.6288,-108.2711,36.6336,NEW MEXICO,SAN JUAN,MST-7,EF0,0.0,0.49,40.0,0,0,0.0,StormEvents_details-ftp_v1.0_d2020_c20260323.csv.gz,2020
882072,2020-03-24 16:27:00,-88.2825,34.6383,-88.13,34.652,MISSISSIPPI,TISHOMINGO,CST-6,EF1,1.0,8.72,400.0,0,0,1500000.0,StormEvents_details-ftp_v1.0_d2020_c20260323.csv.gz,2020
880714,2020-03-24 16:39:00,-88.13,34.652,-87.988,34.667,ALABAMA,COLBERT,CST-6,EF1,1.0,8.16,200.0,0,0,,StormEvents_details-ftp_v1.0_d2020_c20260323.csv.gz,2020
880701,2020-03-24 18:16:00,-86.0098,35.2211,-85.9285,35.2385,TENNESSEE,FRANKLIN,CST-6,EF1,1.0,4.76,175.0,0,0,,StormEvents_details-ftp_v1.0_d2020_c20260323.csv.gz,2020
880671,2020-03-28 12:59:00,-94.6368,41.1507,-94.6316,41.1579,IOWA,ADAMS,CST-6,EF0,0.0,0.57,100.0,0,0,30000.0,StormEvents_details-ftp_v1.0_d2020_c20260323.csv.gz,2020
880672,2020-03-28 13:00:00,-94.6316,41.1579,-94.5652,41.2443,IOWA,ADAIR,CST-6,EF1,1.0,6.9,115.0,0,0,95000.0,StormEvents_details-ftp_v1.0_d2020_c20260323.csv.gz,2020
881910,2020-03-28 15:18:00,-91.1184,35.5072,-91.0524,35.5627,ARKANSAS,JACKSON,CST-6,EF1,1.0,5.33,200.0,0,0,200000.0,StormEvents_details-ftp_v1.0_d2020_c20260323.csv.gz,2020
880684,2020-03-28 15:26:00,-93.206,41.8819,-93.2022,41.9005,IOWA,MARSHALL,CST-6,EF0,0.0,1.3,75.0,0,0,0.0,StormEvents_details-ftp_v1.0_d2020_c20260323.csv.gz,2020
882806,2020-03-28 15:58:00,-90.6852,35.8094,-90.5227,35.934,ARKANSAS,CRAIGHEAD,CST-6,EF3,3.0,12.53,600.0,0,22,300000000.0,StormEvents_details-ftp_v1.0_d2020_c20260323.csv.gz,2020
882820,2020-03-28 16:25:00,-90.3808,36.05,-90.3431,36.0803,ARKANSAS,GREENE,CST-6,EF1,1.0,2.97,100.0,0,0,300000.0,StormEvents_details-ftp_v1.0_d2020_c20260323.csv.gz,2020
879409,2020-03-28 16:39:00,-90.238,41.0624,-90.2364,41.0636,ILLINOIS,KNOX,CST-6,EFU,,0.12,10.0,0,0,0.0,StormEvents_details-ftp_v1.0_d2020_c20260323.csv.gz,2020
880685,2020-03-28 16:39:00,-92.4686,42.3136,-92.4404,42.3399,IOWA,BLACK HAWK,CST-6,EFU,,2.32,40.0,0,0,0.0,StormEvents_details-ftp_v1.0_d2020_c20260323.csv.gz,2020
880686,2020-03-28 16:49:00,-92.3874,42.4201,-92.3676,42.4461,IOWA,BLACK HAWK,CST-6,EF0,0.0,2.06,115.0,0,0,75000.0,StormEvents_details-ftp_v1.0_d2020_c20260323.csv.gz,2020
880687,2020-03-28 16:55:00,-92.3138,42.4725,-92.3095,42.4758,IOWA,BLACK HAWK,CST-6,EFU,,0.32,20.0,0,0,0.0,StormEvents_details-ftp_v1.0_d2020_c20260323.csv.gz,2020
880150,2020-03-28 17:15:00,-92.0809,42.5086,-92.0144,42.6035,IOWA,BUCHANAN,CST-6,EF1,1.0,7.38,50.0,0,0,0.0,StormEvents_details-ftp_v1.0_d2020_c20260323.csv.gz,2020
878419,2020-03-28 17:30:00,-91.9414,42.648,-91.9146,42.7013,IOWA,FAYETTE,CST-6,EF1,1.0,3.93,140.0,0,0,165000.0,StormEvents_details-ftp_v1.0_d2020_c20260323.csv.gz,2020
878425,2020-03-28 17:40:00,-91.8552,42.7525,-91.8448,42.804,IOWA,FAYETTE,CST-6,EF0,0.0,3.6,50.0,0,0,75000.0,StormEvents_details-ftp_v1.0_d2020_c20260323.csv.gz,2020
880149,2020-03-28 18:43:00,-90.24,41.28,-90.2313,41.296,ILLINOIS,HENRY,CST-6,EFU,,1.07,10.0,0,0,0.0,StormEvents_details-ftp_v1.0_d2020_c20260323.csv.gz,2020
875749,2020-03-28 18:58:00,-87.7038,37.7418,-87.4369,37.8626,KENTUCKY,HENDERSON,CST-6,EF2,2.0,16.79,500.0,0,0,500000.0,StormEvents_details-ftp_v1.0_d2020_c20260323.csv.gz,2020
879410,2020-03-28 19:01:00,-90.319,40.3361,-90.2908,40.3567,ILLINOIS,FULTON,CST-6,EF1,1.0,2.06,100.0,0,0,100000.0,StormEvents_details-ftp_v1.0_d2020_c20260323.csv.gz,2020
875737,2020-03-28 19:18:00,-87.4181,37.9372,-87.4036,37.9421,KENTUCKY,HENDERSON,CST-6,EF1,1.0,0.86,100.0,0,0,3000.0,StormEvents_details-ftp_v1.0_d2020_c20260323.csv.gz,2020
875736,2020-03-28 19:19:00,-87.4036,37.9421,-87.3319,37.9644,INDIANA,WARRICK,CST-6,EF2,2.0,4.2,575.0,0,2,2000000.0,StormEvents_details-ftp_v1.0_d2020_c20260323.csv.gz,2020
880152,2020-03-28 19:20:00,-89.8725,41.6003,-89.8658,41.6313,ILLINOIS,WHITESIDE,CST-6,EF1,1.0,2.17,20.0,0,0,0.0,StormEvents_details-ftp_v1.0_d2020_c20260323.csv.gz,2020
880154,2020-03-28 19:25:00,-90.8138,42.5947,-90.7553,42.629,IOWA,DUBUQUE,CST-6,EF1,1.0,3.8,50.0,0,0,0.0,StormEvents_details-ftp_v1.0_d2020_c20260323.csv.gz,2020
878426,2020-03-28 19:35:00,-90.7067,42.706,-90.6636,42.7903,WISCONSIN,GRANT,CST-6,EF1,1.0,6.22,120.0,0,0,180000.0,StormEvents_details-ftp_v1.0_d2020_c20260323.csv.gz,2020
879411,2020-03-28 19:58:00,-89.6754,40.6571,-89.6334,40.6922,ILLINOIS,PEORIA,CST-6,EF1,1.0,3.27,50.0,0,0,300000.0,StormEvents_details-ftp_v1.0_d2020_c20260323.csv.gz,2020
878324,2020-03-28 20:13:00,-89.2964,42.0178,-89.2079,42.0954,ILLINOIS,OGLE,CST-6,EF1,1.0,7.03,400.0,0,0,0.0,StormEvents_details-ftp_v1.0_d2020_c20260323.csv.gz,2020
883360,2020-03-29 01:29:00,-85.434,35.9146,-85.317,35.9446,TENNESSEE,WHITE,CST-6,EF0,0.0,6.9,75.0,0,0,100000.0,StormEvents_details-ftp_v1.0_d2020_c20260323.csv.gz,2020
874339,2020-03-30 16:22:00,-101.57,35.47,-101.5095,35.484,TEXAS,CARSON,CST-6,EFU,,3.55,50.0,0,0,0.0,StormEvents_details-ftp_v1.0_d2020_c20260323.csv.gz,2020
876860,2020-03-30 16:50:00,-101.8499,36.1738,-101.8486,36.1709,TEXAS,SHERMAN,CST-6,EF0,0.0,0.21,20.0,0,0,0.0,StormEvents_details-ftp_v1.0_d2020_c20260323.csv.gz,2020
880607,2020-03-31 08:30:00,-88.75,30.84,-88.61,30.81,MISSISSIPPI,GEORGE,CST-6,EF1,1.0,8.15,50.0,0,0,,StormEvents_details-ftp_v1.0_d2020_c20260323.csv.gz,2020
882671,2020-03-31 09:23:00,-86.1751,32.0817,-86.127,32.1071,ALABAMA,MONTGOMERY,CST-6,EF0,0.0,3.33,190.0,0,0,0.0,StormEvents_details-ftp_v1.0_d2020_c20260323.csv.gz,2020
882672,2020-03-31 09:33:00,-86.0665,31.9371,-86.0643,31.9379,ALABAMA,PIKE,CST-6,EF0,0.0,0.14,80.0,0,0,0.0,StormEvents_details-ftp_v1.0_d2020_c20260323.csv.gz,2020
882673,2020-03-31 09:34:00,-86.0307,31.8539,-86.0037,31.858,ALABAMA,PIKE,CST-6,EF0,0.0,1.61,80.0,0,0,0.0,StormEvents_details-ftp_v1.0_d2020_c20260323.csv.gz,2020
882674,2020-03-31 09:51:00,-85.8111,31.9011,-85.7972,31.9025,ALABAMA,PIKE,CST-6,EF0,0.0,0.83,180.0,0,0,0.0,StormEvents_details-ftp_v1.0_d2020_c20260323.csv.gz,2020
882676,2020-03-31 10:34:00,-85.2636,31.8173,-85.1313,31.8173,ALABAMA,BARBOUR,CST-6,EF2,2.0,7.85,350.0,0,0,0.0,StormEvents_details-ftp_v1.0_d2020_c20260323.csv.gz,2020
882941,2020-03-31 11:46:00,-85.1313,31.8173,-84.9087,31.8497,GEORGIA,QUITMAN,EST-5,EF1,1.0,13.26,200.0,0,1,50000.0,StormEvents_details-ftp_v1.0_d2020_c20260323.csv.gz,2020
882752,2020-03-31 11:55:00,-86.1945,30.462,-86.1917,30.4621,FLORIDA,WALTON,CST-6,EF0,0.0,0.17,25.0,0,0,2000.0,StormEvents_details-ftp_v1.0_d2020_c20260323.csv.gz,2020
882942,2020-03-31 12:05:00,-84.9087,31.8497,-84.7588,31.8649,GEORGIA,RANDOLPH,EST-5,EF1,1.0,8.86,200.0,0,0,0.0,StormEvents_details-ftp_v1.0_d2020_c20260323.csv.gz,2020
874452,2020-03-31 13:30:00,-119.28,46.33,-119.28,46.33,WASHINGTON,BENTON,PST-8,EF0,0.0,0.1,20.0,0,0,0.0,StormEvents_details-ftp_v1.0_d2020_c20260323.csv.gz,2020
883153,2020-03-31 15:10:00,-83.8415,30.3154,-83.7875,30.3306,FLORIDA,JEFFERSON,EST-5,EF1,1.0,3.39,150.0,0,0,2000.0,StormEvents_details-ftp_v1.0_d2020_c20260323.csv.gz,2020
883154,2020-03-31 15:16:00,-83.7875,30.3306,-83.6902,30.3366,FLORIDA,MADISON,EST-5,EF1,1.0,5.82,150.0,0,0,0.0,StormEvents_details-ftp_v1.0_d2020_c20260323.csv.gz,2020
883155,2020-03-31 15:17:00,-83.6361,30.4215,-83.4422,30.4521,FLORIDA,MADISON,EST-5,EF1,1.0,11.74,100.0,0,0,0.0,StormEvents_details-ftp_v1.0_d2020_c20260323.csv.gz,2020
883156,2020-03-31 15:33:00,-83.4112,30.461,-83.4093,30.4612,FLORIDA,MADISON,EST-5,EF0,0.0,0.11,50.0,0,0,50000.0,StormEvents_details-ftp_v1.0_d2020_c20260323.csv.gz,2020
877021,2020-03-31 16:26:00,-83.0498,30.1767,-83.0365,30.1774,FLORIDA,SUWANNEE,EST-5,EF0,0.0,0.8,704.0,0,0,0.0,StormEvents_details-ftp_v1.0_d2020_c20260323.csv.gz,2020
877022,2020-03-31 18:29:00,-81.3564,30.1407,-81.3502,30.1425,FLORIDA,ST. JOHNS,EST-5,EF0,0.0,0.39,704.0,0,0,0.0,StormEvents_details-ftp_v1.0_d2020_c20260323.csv.gz,2020
887102,2020-04-07 22:25:00,-82.0136,41.2387,-81.9738,41.2097,OHIO,LORAIN,EST-5,EF1,1.0,2.88,100.0,0,0,30000.0,StormEvents_details-ftp_v1.0_d2020_c20260323.csv.gz,2020
887116,2020-04-07 22:28:00,-81.9738,41.2097,-81.8535,41.1249,OHIO,MEDINA,EST-5,EF0,0.0,8.57,100.0,0,0,50000.0,StormEvents_details-ftp_v1.0_d2020_c20260323.csv.gz,2020
887126,2020-04-07 22:52:00,-81.6023,41.0334,-81.4767,40.9277,OHIO,SUMMIT,EST-5,EF1,1.0,9.81,100.0,0,0,500000.0,StormEvents_details-ftp_v1.0_d2020_c20260323.csv.gz,2020
887128,2020-04-07 23:10:00,-81.5559,40.7953,-81.3529,40.6528,OHIO,STARK,EST-5,EF0,0.0,14.49,100.0,0,0,,StormEvents_details-ftp_v1.0_d2020_c20260323.csv.gz,2020
886244,2020-04-07 23:30:00,-81.3529,40.6528,-81.3476,40.6351,OHIO,TUSCARAWAS,EST-5,EF0,0.0,1.25,100.0,0,0,,StormEvents_details-ftp_v1.0_d2020_c20260323.csv.gz,2020
886245,2020-04-07 23:33:00,-80.63,40.827,-80.552,40.774,OHIO,COLUMBIANA,EST-5,EF1,1.0,5.48,250.0,0,0,,StormEvents_details-ftp_v1.0_d2020_c20260323.csv.gz,2020
886246,2020-04-07 23:37:00,-80.562,40.775,-80.519,40.7472,OHIO,COLUMBIANA,EST-5,EF0,0.0,2.96,100.0,0,0,,StormEvents_details-ftp_v1.0_d2020_c20260323.csv.gz,2020
886247,2020-04-07 23:40:00,-80.519,40.7472,-80.508,40.738,PENNSYLVANIA,BEAVER,EST-5,EF0,0.0,0.86,100.0,0,0,,StormEvents_details-ftp_v1.0_d2020_c20260323.csv.gz,2020
884990,2020-04-08 00:11:00,-79.795,40.625,-79.756,40.597,PENNSYLVANIA,ALLEGHENY,EST-5,EF1,1.0,2.82,250.0,0,0,100000.0,StormEvents_details-ftp_v1.0_d2020_c20260323.csv.gz,2020
884997,2020-04-08 00:16:00,-79.756,40.597,-79.739,40.59,PENNSYLVANIA,WESTMORELAND,EST-5,EF0,0.0,1.01,250.0,0,0,10000.0,StormEvents_details-ftp_v1.0_d2020_c20260323.csv.gz,2020
884794,2020-04-08 00:17:00,-79.715,40.607,-79.714,40.605,PENNSYLVANIA,WESTMORELAND,EST-5,EF0,0.0,0.15,75.0,0,0,10000.0,StormEvents_details-ftp_v1.0_d2020_c20260323.csv.gz,2020
889084,2020-04-08 18:47:00,-90.9859,35.7303,-90.9988,35.7379,ARKANSAS,CRAIGHEAD,CST-6,EF0,0.0,0.89,30.0,0,0,8000.0,StormEvents_details-ftp_v1.0_d2020_c20260323.csv.gz,2020
889085,2020-04-08 19:05:00,-90.8562,35.6567,-90.7239,35.575,ARKANSAS,POINSETT,CST-6,EF2,2.0,9.33,75.0,0,2,250000.0,StormEvents_details-ftp_v1.0_d2020_c20260323.csv.gz,2020
886932,2020-04-08 19:22:00,-83.1965,31.0714,-83.167,31.072,GEORGIA,BERRIEN,EST-5,EF0,0.0,1.75,300.0,0,0,50000.0,StormEvents_details-ftp_v1.0_d2020_c20260323.csv.gz,2020
886935,2020-04-08 19:25:00,-83.167,31.072,-83.1238,31.0615,GEORGIA,LANIER,EST-5,EF0,0.0,2.66,300.0,0,0,50000.0,StormEvents_details-ftp_v1.0_d2020_c20260323.csv.gz,2020
876060,2020-04-08 19:43:00,-86.3771,39.6133,-86.362,39.6056,INDIANA,MORGAN,EST-5,EF1,1.0,0.97,35.0,0,0,500000.0,StormEvents_details-ftp_v1.0_d2020_c20260323.csv.gz,2020
877008,2020-04-08 20:59:00,-85.2627,39.0631,-85.2171,39.0565,INDIANA,RIPLEY,EST-5,EF1,1.0,2.49,450.0,0,0,50000.0,StormEvents_details-ftp_v1.0_d2020_c20260323.csv.gz,2020
878041,2020-04-08 21:06:00,-85.2051,38.944,-85.2036,38.9417,INDIANA,RIPLEY,EST-5,EF0,0.0,0.18,75.0,0,0,20000.0,StormEvents_details-ftp_v1.0_d2020_c20260323.csv.gz,2020
877147,2020-04-08 21:08:00,-85.1699,39.0215,-85.1296,39.0024,INDIANA,RIPLEY,EST-5,EF0,0.0,2.6,220.0,0,0,50000.0,StormEvents_details-ftp_v1.0_d2020_c20260323.csv.gz,2020
878259,2020-04-08 21:10:00,-85.0973,39.0026,-85.087,38.9912,INDIANA,DEARBORN,EST-5,EF0,0.0,0.96,150.0,0,0,40000.0,StormEvents_details-ftp_v1.0_d2020_c20260323.csv.gz,2020
878260,2020-04-08 21:11:00,-85.1216,38.9075,-85.119,38.9066,INDIANA,OHIO,EST-5,EF0,0.0,0.15,60.0,0,0,20000.0,StormEvents_details-ftp_v1.0_d2020_c20260323.csv.gz,2020
877156,2020-04-08 21:13:00,-85.0432,38.9619,-84.9412,38.9377,INDIANA,OHIO,EST-5,EF0,0.0,5.73,450.0,0,0,50000.0,StormEvents_details-ftp_v1.0_d2020_c20260323.csv.gz,2020
877173,2020-04-08 21:13:00,-84.9579,38.958,-84.864,38.9372,INDIANA,OHIO,EST-5,EF0,0.0,5.25,200.0,0,0,20000.0,StormEvents_details-ftp_v1.0_d2020_c20260323.csv.gz,2020
876910,2020-04-08 21:22:00,-84.5951,39.2454,-84.4845,39.2216,OHIO,HAMILTON,EST-5,EF0,0.0,6.2,300.0,0,0,100000.0,StormEvents_details-ftp_v1.0_d2020_c20260323.csv.gz,2020
879594,2020-04-08 21:27:00,-84.8735,38.7863,-84.8662,38.7847,KENTUCKY,GALLATIN,EST-5,EF0,0.0,0.5,50.0,0,0,30000.0,StormEvents_details-ftp_v1.0_d2020_c20260323.csv.gz,2020
876954,2020-04-08 21:37:00,-84.3556,39.2081,-84.3081,39.1763,OHIO,HAMILTON,EST-5,EF0,0.0,3.3,350.0,0,0,45000.0,StormEvents_details-ftp_v1.0_d2020_c20260323.csv.gz,2020
879595,2020-04-08 21:40:00,-84.6632,38.7145,-84.6201,38.7057,KENTUCKY,GRANT,EST-5,EF1,1.0,2.4,500.0,0,0,35000.0,StormEvents_details-ftp_v1.0_d2020_c20260323.csv.gz,2020
879596,2020-04-08 21:42:00,-84.5918,38.8282,-84.5686,38.8218,KENTUCKY,KENTON,EST-5,EF0,0.0,1.2,100.0,0,0,20000.0,StormEvents_details-ftp_v1.0_d2020_c20260323.csv.gz,2020
879597,2020-04-08 21:47:00,-84.552,38.6748,-84.5039,38.6602,KENTUCKY,GRANT,EST-5,EF0,0.0,3.01,150.0,0,0,10000.0,StormEvents_details-ftp_v1.0_d2020_c20260323.csv.gz,2020
879598,2020-04-08 21:50:00,-84.5039,38.6602,-84.2152,38.5931,KENTUCKY,PENDLETON,EST-5,EF1,1.0,16.19,400.0,0,0,35000.0,StormEvents_details-ftp_v1.0_d2020_c20260323.csv.gz,2020
876956,2020-04-08 21:50:00,-84.105,39.1762,-83.9976,39.192,OHIO,CLERMONT,EST-5,EF0,0.0,5.92,200.0,0,0,25000.0,StormEvents_details-ftp_v1.0_d2020_c20260323.csv.gz,2020
876957,2020-04-08 21:53:00,-84.0696,39.2319,-84.0558,39.2333,OHIO,CLERMONT,EST-5,EF0,0.0,0.8,75.0,0,0,25000.0,StormEvents_details-ftp_v1.0_d2020_c20260323.csv.gz,2020
876959,2020-04-08 21:56:00,-83.978,39.1592,-83.9369,39.1722,OHIO,BROWN,EST-5,EF0,0.0,2.4,50.0,0,0,15000.0,StormEvents_details-ftp_v1.0_d2020_c20260323.csv.gz,2020
883800,2020-04-08 21:56:00,-83.9976,39.192,-83.9467,39.2006,OHIO,BROWN,EST-5,EF0,0.0,2.88,200.0,0,0,15000.0,StormEvents_details-ftp_v1.0_d2020_c20260323.csv.gz,2020
879630,2020-04-08 22:01:00,-83.9598,39.2558,-83.9489,39.2519,OHIO,CLINTON,EST-5,EF0,0.0,0.78,50.0,0,0,1000.0,StormEvents_details-ftp_v1.0_d2020_c20260323.csv.gz,2020
876961,2020-04-08 22:02:00,-83.9489,39.2519,-83.9451,39.2501,OHIO,BROWN,EST-5,EF0,0.0,0.1,50.0,0,0,4000.0,StormEvents_details-ftp_v1.0_d2020_c20260323.csv.gz,2020
879599,2020-04-08 22:16:00,-84.0441,38.5407,-84.0251,38.5391,KENTUCKY,ROBERTSON,EST-5,EF0,0.0,1.03,50.0,0,0,25000.0,StormEvents_details-ftp_v1.0_d2020_c20260323.csv.gz,2020
889019,2020-04-08 22:20:00,-85.4216,37.9206,-85.3719,37.8953,KENTUCKY,NELSON,EST-5,EF1,1.0,4.0,45.0,0,0,200000.0,StormEvents_details-ftp_v1.0_d2020_c20260323.csv.gz,2020
879600,2020-04-08 22:25:00,-83.9022,38.5104,-83.8832,38.5101,KENTUCKY,MASON,EST-5,EF0,0.0,1.2,50.0,0,0,15000.0,StormEvents_details-ftp_v1.0_d2020_c20260323.csv.gz,2020
880023,2020-04-08 23:33:00,-82.3565,39.0794,-82.3538,39.0821,OHIO,VINTON,EST-5,EF1,1.0,0.25,125.0,0,0,200000.0,StormEvents_details-ftp_v1.0_d2020_c20260323.csv.gz,2020
888860,2020-04-12 00:03:00,-101.3172,30.5048,-101.2391,30.5505,TEXAS,CROCKETT,CST-6,EF1,1.0,5.62,250.0,0,0,0.0,StormEvents_details-ftp_v1.0_d2020_c20260323.csv.gz,2020
888840,2020-04-12 03:05:00,-99.5846,31.2145,-99.5128,31.256,TEXAS,MCCULLOCH,CST-6,EF1,1.0,5.12,300.0,0,0,0.0,StormEvents_details-ftp_v1.0_d2020_c20260323.csv.gz,2020
875754,2020-04-12 03:40:00,-98.8248,30.3007,-98.6498,30.3728,TEXAS,GILLESPIE,CST-6,EF1,1.0,11.56,150.0,0,0,100000.0,StormEvents_details-ftp_v1.0_d2020_c20260323.csv.gz,2020
875763,2020-04-12 04:23:00,-98.3605,30.4397,-98.295,30.4715,TEXAS,BLANCO,CST-6,EF1,1.0,5.72,200.0,0,2,1000000.0,StormEvents_details-ftp_v1.0_d2020_c20260323.csv.gz,2020
885194,2020-04-12 04:33:00,-98.295,30.4715,-98.2769,30.4805,TEXAS,BURNET,CST-6,EF1,1.0,1.24,200.0,0,0,10000.0,StormEvents_details-ftp_v1.0_d2020_c20260323.csv.gz,2020
886501,2020-04-12 05:05:00,-96.4298,31.6552,-96.4261,31.6558,TEXAS,LIMESTONE,CST-6,EF0,0.0,0.22,50.0,0,0,5000.0,StormEvents_details-ftp_v1.0_d2020_c20260323.csv.gz,2020
877435,2020-04-12 08:06:00,-94.3827,31.8921,-94.3702,31.8932,TEXAS,SHELBY,CST-6,EF1,1.0,0.74,30.0,0,0,0.0,StormEvents_details-ftp_v1.0_d2020_c20260323.csv.gz,2020
877438,2020-04-12 08:08:00,-94.2764,32.399,-94.142,32.5021,TEXAS,HARRISON,CST-6,EF1,1.0,10.59,100.0,0,0,150000.0,StormEvents_details-ftp_v1.0_d2020_c20260323.csv.gz,2020
877511,2020-04-12 08:41:00,-93.7946,32.1493,-93.6647,32.2206,LOUISIANA,DE SOTO,CST-6,EF2,2.0,9.05,400.0,0,1,1000000.0,StormEvents_details-ftp_v1.0_d2020_c20260323.csv.gz,2020
877521,2020-04-12 08:52:00,-93.7439,32.6975,-93.7366,32.6986,LOUISIANA,BOSSIER,CST-6,EF1,1.0,0.43,125.0,0,0,150000.0,StormEvents_details-ftp_v1.0_d2020_c20260323.csv.gz,2020
877525,2020-04-12 08:57:00,-93.5866,32.1448,-93.5239,32.1778,LOUISIANA,DE SOTO,CST-6,EF1,1.0,4.32,300.0,0,0,25000.0,StormEvents_details-ftp_v1.0_d2020_c20260323.csv.gz,2020
877527,2020-04-12 09:02:00,-93.5239,32.1778,-93.4903,32.1959,LOUISIANA,RED RIVER,CST-6,EF1,1.0,2.33,300.0,0,0,0.0,StormEvents_details-ftp_v1.0_d2020_c20260323.csv.gz,2020
877541,2020-04-12 09:10:00,-93.3805,32.4272,-93.2829,32.4602,LOUISIANA,WEBSTER,CST-6,EF1,1.0,6.13,1000.0,0,0,100000.0,StormEvents_details-ftp_v1.0_d2020_c20260323.csv.gz,2020
877563,2020-04-12 09:30:00,-93.1185,32.1488,-93.0989,32.1653,LOUISIANA,BIENVILLE,CST-6,EF1,1.0,1.62,400.0,0,0,0.0,StormEvents_details-ftp_v1.0_d2020_c20260323.csv.gz,2020
877565,2020-04-12 09:39:00,-92.9451,32.5636,-92.9329,32.5678,LOUISIANA,BIENVILLE,CST-6,EF1,1.0,0.77,75.0,0,0,200000.0,StormEvents_details-ftp_v1.0_d2020_c20260323.csv.gz,2020
879880,2020-04-12 10:36:00,-92.1699,32.4706,-92.0425,32.5142,LOUISIANA,OUACHITA,CST-6,EF3,3.0,8.01,300.0,0,0,250000000.0,StormEvents_details-ftp_v1.0_d2020_c20260323.csv.gz,2020
879881,2020-04-12 10:39:00,-92.0977,32.6215,-92.0684,32.65,LOUISIANA,OUACHITA,CST-6,EF3,3.0,2.6,400.0,0,0,750000.0,StormEvents_details-ftp_v1.0_d2020_c20260323.csv.gz,2020
879885,2020-04-12 10:46:00,-92.035,32.6452,-92.0196,32.6554,LOUISIANA,OUACHITA,CST-6,EF1,1.0,1.14,50.0,0,0,25000.0,StormEvents_details-ftp_v1.0_d2020_c20260323.csv.gz,2020
892632,2020-04-12 11:02:00,-91.8239,32.6814,-91.7812,32.7065,LOUISIANA,MOREHOUSE,CST-6,EF1,1.0,3.03,200.0,0,0,20000.0,StormEvents_details-ftp_v1.0_d2020_c20260323.csv.gz,2020
920956,2020-04-12 11:10:00,-91.65,32.65,-91.6387,32.6593,LOUISIANA,MOREHOUSE,CST-6,EF1,1.0,0.92,200.0,0,0,3000.0,StormEvents_details-ftp_v1.0_d2020_c20260323.csv.gz,2020
920965,2020-04-12 11:11:00,-91.5798,32.5597,-91.5607,32.5822,LOUISIANA,RICHLAND,CST-6,EF1,1.0,1.91,150.0,0,0,9000.0,StormEvents_details-ftp_v1.0_d2020_c20260323.csv.gz,2020
920961,2020-04-12 11:11:00,-91.6387,32.6593,-91.6241,32.6673,LOUISIANA,RICHLAND,CST-6,EF1,1.0,1.01,500.0,0,0,3000.0,StormEvents_details-ftp_v1.0_d2020_c20260323.csv.gz,2020
920968,2020-04-12 11:11:00,-91.6168,32.596,-91.5963,32.6026,LOUISIANA,RICHLAND,CST-6,EF0,0.0,1.28,50.0,0,0,1000.0,StormEvents_details-ftp_v1.0_d2020_c20260323.csv.gz,2020
920966,2020-04-12 11:12:00,-91.5607,32.5822,-91.532,32.6137,LOUISIANA,WEST CARROLL,CST-6,EF0,0.0,2.74,100.0,0,0,3000.0,StormEvents_details-ftp_v1.0_d2020_c20260323.csv.gz,2020
920971,2020-04-12 11:12:00,-91.5963,32.6026,-91.5044,32.6473,LOUISIANA,WEST CARROLL,CST-6,EF1,1.0,6.18,700.0,0,0,25000.0,StormEvents_details-ftp_v1.0_d2020_c20260323.csv.gz,2020
920962,2020-04-12 11:12:00,-91.6241,32.6673,-91.5193,32.7328,LOUISIANA,WEST CARROLL,CST-6,EF2,2.0,7.59,700.0,0,0,30000.0,StormEvents_details-ftp_v1.0_d2020_c20260323.csv.gz,2020
898593,2020-04-12 11:41:00,-91.1793,32.7942,-91.1655,32.8063,LOUISIANA,EAST CARROLL,CST-6,EF0,0.0,1.16,170.0,0,0,75000.0,StormEvents_details-ftp_v1.0_d2020_c20260323.csv.gz,2020
898595,2020-04-12 12:00:00,-90.8925,32.787,-90.8054,32.8342,MISSISSIPPI,SHARKEY,CST-6,EF1,1.0,6.02,200.0,0,0,15000.0,StormEvents_details-ftp_v1.0_d2020_c20260323.csv.gz,2020
898597,2020-04-12 12:17:00,-90.5931,32.9296,-90.5454,32.9732,MISSISSIPPI,HUMPHREYS,CST-6,EF1,1.0,4.09,440.0,0,0,50000.0,StormEvents_details-ftp_v1.0_d2020_c20260323.csv.gz,2020
898598,2020-04-12 12:22:00,-90.5208,32.8574,-90.4184,32.9208,MISSISSIPPI,YAZOO,CST-6,EF2,2.0,7.38,250.0,0,0,150000.0,StormEvents_details-ftp_v1.0_d2020_c20260323.csv.gz,2020
898599,2020-04-12 12:46:00,-90.2608,33.0049,-90.2225,33.0154,MISSISSIPPI,HOLMES,CST-6,EF0,0.0,2.33,50.0,0,0,40000.0,StormEvents_details-ftp_v1.0_d2020_c20260323.csv.gz,2020
898600,2020-04-12 13:06:00,-89.8541,32.9961,-89.823,33.0204,MISSISSIPPI,ATTALA,CST-6,EF1,1.0,2.46,500.0,0,0,35000.0,StormEvents_details-ftp_v1.0_d2020_c20260323.csv.gz,2020
898601,2020-04-12 13:47:00,-89.3018,33.1961,-89.2794,33.2359,MISSISSIPPI,CHOCTAW,CST-6,EF0,0.0,3.04,150.0,0,0,9000.0,StormEvents_details-ftp_v1.0_d2020_c20260323.csv.gz,2020
898602,2020-04-12 14:30:00,-88.6044,33.1469,-88.4762,33.2067,MISSISSIPPI,NOXUBEE,CST-6,EF2,2.0,8.49,1100.0,0,0,150000.0,StormEvents_details-ftp_v1.0_d2020_c20260323.csv.gz,2020
887908,2020-04-12 14:39:00,-90.1732,31.2763,-90.0822,31.3331,MISSISSIPPI,WALTHALL,CST-6,EF4,4.0,6.65,1300.0,2,0,,StormEvents_details-ftp_v1.0_d2020_c20260323.csv.gz,2020
898603,2020-04-12 14:42:00,-88.4308,33.2352,-88.368,33.2555,MISSISSIPPI,NOXUBEE,CST-6,EF1,1.0,3.89,375.0,0,0,20000.0,StormEvents_details-ftp_v1.0_d2020_c20260323.csv.gz,2020
902815,2020-04-12 14:47:00,-90.0823,31.3331,-90.0405,31.3522,MISSISSIPPI,LAWRENCE,CST-6,EF3,3.0,2.8,1936.0,2,3,750000.0,StormEvents_details-ftp_v1.0_d2020_c20260323.csv.gz,2020
902823,2020-04-12 14:51:00,-90.0405,31.3522,-89.8996,31.3904,MISSISSIPPI,MARION,CST-6,EF2,2.0,8.72,1500.0,0,0,1000000.0,StormEvents_details-ftp_v1.0_d2020_c20260323.csv.gz,2020
887479,2020-04-12 15:01:00,-88.1937,33.3697,-88.1722,33.382,ALABAMA,PICKENS,CST-6,EF0,0.0,1.51,200.0,0,0,0.0,StormEvents_details-ftp_v1.0_d2020_c20260323.csv.gz,2020
902816,2020-04-12 15:03:00,-89.8996,31.3904,-89.8505,31.4017,MISSISSIPPI,JEFFERSON DAVIS,CST-6,EF1,1.0,3.0,480.0,0,0,1000000.0,StormEvents_details-ftp_v1.0_d2020_c20260323.csv.gz,2020
902831,2020-04-12 15:12:00,-89.7579,31.4641,-89.6194,31.5475,MISSISSIPPI,JEFFERSON DAVIS,CST-6,EF4,4.0,9.99,2640.0,4,4,18000000.0,StormEvents_details-ftp_v1.0_d2020_c20260323.csv.gz,2020
887480,2020-04-12 15:18:00,-87.8859,33.4593,-87.8602,33.5254,ALABAMA,PICKENS,CST-6,EF0,0.0,4.8,300.0,0,0,0.0,StormEvents_details-ftp_v1.0_d2020_c20260323.csv.gz,2020
902837,2020-04-12 15:24:00,-89.6194,31.5475,-89.4004,31.6661,MISSISSIPPI,COVINGTON,CST-6,EF4,4.0,15.27,3960.0,0,5,25900000.0,StormEvents_details-ftp_v1.0_d2020_c20260323.csv.gz,2020
887481,2020-04-12 15:25:00,-87.8602,33.5254,-87.8593,33.5348,ALABAMA,FAYETTE,CST-6,EF0,0.0,0.65,265.0,0,0,0.0,StormEvents_details-ftp_v1.0_d2020_c20260323.csv.gz,2020
887482,2020-04-12 15:34:00,-87.7504,33.5878,-87.7472,33.6136,ALABAMA,FAYETTE,CST-6,EF0,0.0,1.79,350.0,0,0,0.0,StormEvents_details-ftp_v1.0_d2020_c20260323.csv.gz,2020
902862,2020-04-12 15:36:00,-90.1101,31.3712,-89.9591,31.4688,MISSISSIPPI,LAWRENCE,CST-6,EF3,3.0,11.17,1170.0,0,0,1100000.0,StormEvents_details-ftp_v1.0_d2020_c20260323.csv.gz,2020
887483,2020-04-12 15:41:00,-87.5872,33.6264,-87.5283,33.6932,ALABAMA,FAYETTE,CST-6,EF1,1.0,5.73,600.0,0,0,0.0,StormEvents_details-ftp_v1.0_d2020_c20260323.csv.gz,2020
902843,2020-04-12 15:41:00,-89.4004,31.6661,-89.1863,31.81,MISSISSIPPI,JONES,CST-6,EF4,4.0,16.04,3520.0,3,80,11800000.0,StormEvents_details-ftp_v1.0_d2020_c20260323.csv.gz,2020
887484,2020-04-12 15:48:00,-87.5283,33.6932,-87.5245,33.6983,ALABAMA,WALKER,CST-6,EF1,1.0,0.41,320.0,0,0,0.0,StormEvents_details-ftp_v1.0_d2020_c20260323.csv.gz,2020
902867,2020-04-12 15:48:00,-89.9591,31.4688,-89.729,31.6036,MISSISSIPPI,JEFFERSON DAVIS,CST-6,EF3,3.0,16.44,2041.0,0,1,7000000.0,StormEvents_details-ftp_v1.0_d2020_c20260323.csv.gz,2020
902844,2020-04-12 15:59:00,-89.1863,31.81,-88.9125,32.0311,MISSISSIPPI,JASPER,CST-6,EF4,4.0,22.16,1760.0,0,6,5800000.0,StormEvents_details-ftp_v1.0_d2020_c20260323.csv.gz,2020
887485,2020-04-12 16:04:00,-87.2022,33.6319,-87.0731,33.7027,ALABAMA,WALKER,CST-6,EF1,1.0,8.98,950.0,0,0,0.0,StormEvents_details-ftp_v1.0_d2020_c20260323.csv.gz,2020
902869,2020-04-12 16:06:00,-89.729,31.6036,-89.4012,31.7761,MISSISSIPPI,COVINGTON,CST-6,EF3,3.0,22.66,1580.0,0,1,8300000.000000001,StormEvents_details-ftp_v1.0_d2020_c20260323.csv.gz,2020
887486,2020-04-12 16:14:00,-87.0534,33.6991,-87.0402,33.7057,ALABAMA,WALKER,CST-6,EF1,1.0,0.89,925.0,0,0,0.0,StormEvents_details-ftp_v1.0_d2020_c20260323.csv.gz,2020
887487,2020-04-12 16:15:00,-87.0402,33.7057,-86.9485,33.7478,ALABAMA,JEFFERSON,CST-6,EF2,2.0,6.02,940.0,0,0,0.0,StormEvents_details-ftp_v1.0_d2020_c20260323.csv.gz,2020
898604,2020-04-12 16:22:00,-88.8943,32.0015,-88.7904,32.1887,MISSISSIPPI,CLARKE,CST-6,EF2,2.0,14.29,300.0,0,2,250000.0,StormEvents_details-ftp_v1.0_d2020_c20260323.csv.gz,2020
902846,2020-04-12 16:24:00,-88.9125,32.0311,-88.8649,32.072,MISSISSIPPI,CLARKE,CST-6,EF1,1.0,3.97,1400.0,0,3,40000.0,StormEvents_details-ftp_v1.0_d2020_c20260323.csv.gz,2020
902870,2020-04-12 16:31:00,-89.4012,31.7761,-89.3635,31.7992,MISSISSIPPI,JONES,CST-6,EF1,1.0,2.73,960.0,0,0,20000.0,StormEvents_details-ftp_v1.0_d2020_c20260323.csv.gz,2020
902871,2020-04-12 16:34:00,-89.3635,31.7992,-89.3168,31.8278,MISSISSIPPI,SMITH,CST-6,EF1,1.0,3.38,860.0,0,0,20000.0,StormEvents_details-ftp_v1.0_d2020_c20260323.csv.gz,2020
902872,2020-04-12 16:38:00,-89.3168,31.8278,-89.0047,32.1121,MISSISSIPPI,JASPER,CST-6,EF1,1.0,26.84,550.0,0,0,1450000.0,StormEvents_details-ftp_v1.0_d2020_c20260323.csv.gz,2020
887605,2020-04-12 16:44:00,-86.6877,33.8819,-86.6797,33.8832,ALABAMA,BLOUNT,CST-6,EF0,0.0,0.47,125.0,0,0,0.0,StormEvents_details-ftp_v1.0_d2020_c20260323.csv.gz,2020
887606,2020-04-12 16:47:00,-86.6549,33.8977,-86.589,33.9043,ALABAMA,BLOUNT,CST-6,EF1,1.0,3.84,225.0,0,0,0.0,StormEvents_details-ftp_v1.0_d2020_c20260323.csv.gz,2020
898605,2020-04-12 16:47:00,-88.6932,32.2571,-88.6801,32.2973,MISSISSIPPI,LAUDERDALE,CST-6,EF1,1.0,2.88,300.0,0,0,50000.0,StormEvents_details-ftp_v1.0_d2020_c20260323.csv.gz,2020
887607,2020-04-12 16:50:00,-86.5677,33.9384,-86.4876,33.9827,ALABAMA,BLOUNT,CST-6,EF2,2.0,5.56,500.0,0,0,0.0,StormEvents_details-ftp_v1.0_d2020_c20260323.csv.gz,2020
887608,2020-04-12 17:04:00,-86.3916,34.0264,-86.3798,34.0318,ALABAMA,BLOUNT,CST-6,EF1,1.0,0.78,115.0,0,0,0.0,StormEvents_details-ftp_v1.0_d2020_c20260323.csv.gz,2020
887609,2020-04-12 17:08:00,-86.1577,33.9987,-86.0844,34.05,ALABAMA,ETOWAH,CST-6,EF1,1.0,5.52,525.0,0,0,0.0,StormEvents_details-ftp_v1.0_d2020_c20260323.csv.gz,2020
887610,2020-04-12 17:10:00,-86.3249,34.0721,-86.3202,34.0757,ALABAMA,BLOUNT,CST-6,EF0,0.0,0.37,100.0,0,0,0.0,StormEvents_details-ftp_v1.0_d2020_c20260323.csv.gz,2020
899728,2020-04-12 17:10:00,-88.9602,32.1209,-88.9138,32.1439,MISSISSIPPI,JASPER,CST-6,EF0,0.0,3.15,50.0,0,0,15000.0,StormEvents_details-ftp_v1.0_d2020_c20260323.csv.gz,2020
887611,2020-04-12 17:11:00,-86.3202,34.0757,-86.1543,34.1871,ALABAMA,ETOWAH,CST-6,EF2,2.0,12.22,350.0,0,3,0.0,StormEvents_details-ftp_v1.0_d2020_c20260323.csv.gz,2020
899729,2020-04-12 17:13:00,-88.9138,32.1439,-88.8329,32.1903,MISSISSIPPI,CLARKE,CST-6,EF1,1.0,5.72,985.0,0,0,15000.0,StormEvents_details-ftp_v1.0_d2020_c20260323.csv.gz,2020
887612,2020-04-12 17:14:00,-86.0704,34.0419,-85.9321,34.1752,ALABAMA,ETOWAH,CST-6,EF2,2.0,12.19,875.0,0,0,0.0,StormEvents_details-ftp_v1.0_d2020_c20260323.csv.gz,2020
886306,2020-04-12 17:22:00,-86.1505,34.1891,-86.1063,34.2052,ALABAMA,MARSHALL,CST-6,EF2,2.0,2.76,440.0,0,0,,StormEvents_details-ftp_v1.0_d2020_c20260323.csv.gz,2020
886309,2020-04-12 17:25:00,-86.1063,34.2052,-86.0019,34.2383,ALABAMA,DEKALB,CST-6,EF1,1.0,6.39,440.0,0,0,,StormEvents_details-ftp_v1.0_d2020_c20260323.csv.gz,2020
887613,2020-04-12 19:12:00,-87.5472,33.8795,-87.5081,33.9072,ALABAMA,WALKER,CST-6,EF1,1.0,2.9,1000.0,0,3,0.0,StormEvents_details-ftp_v1.0_d2020_c20260323.csv.gz,2020
889242,2020-04-12 19:15:00,-85.2571,34.5889,-85.215,34.666,GEORGIA,WALKER,EST-5,EF2,2.0,5.84,800.0,0,0,300000.0,StormEvents_details-ftp_v1.0_d2020_c20260323.csv.gz,2020
889236,2020-04-12 19:15:00,-85.3689,34.499,-85.2571,34.5889,GEORGIA,CHATTOOGA,EST-5,EF1,1.0,8.89,800.0,0,0,100000.0,StormEvents_details-ftp_v1.0_d2020_c20260323.csv.gz,2020
887614,2020-04-12 19:33:00,-87.5015,33.2831,-87.3778,33.3801,ALABAMA,TUSCALOOSA,CST-6,EF1,1.0,9.86,230.0,0,0,0.0,StormEvents_details-ftp_v1.0_d2020_c20260323.csv.gz,2020
886292,2020-04-12 19:51:00,-87.0368,33.9984,-86.9902,34.0169,ALABAMA,CULLMAN,CST-6,EF1,1.0,2.97,200.0,0,0,,StormEvents_details-ftp_v1.0_d2020_c20260323.csv.gz,2020
886296,2020-04-12 20:00:00,-86.8747,34.0736,-86.7835,34.0937,ALABAMA,CULLMAN,CST-6,EF1,1.0,5.42,300.0,0,0,,StormEvents_details-ftp_v1.0_d2020_c20260323.csv.gz,2020
885081,2020-04-12 20:03:00,-88.3161,31.7065,-88.3128,31.7118,ALABAMA,CHOCTAW,CST-6,EF1,1.0,0.41,100.0,0,0,,StormEvents_details-ftp_v1.0_d2020_c20260323.csv.gz,2020
886300,2020-04-12 20:11:00,-86.7377,34.1329,-86.733,34.1297,ALABAMA,CULLMAN,CST-6,EF1,1.0,0.35,70.0,0,0,,StormEvents_details-ftp_v1.0_d2020_c20260323.csv.gz,2020
886298,2020-04-12 20:12:00,-86.7087,34.1239,-86.6669,34.1337,ALABAMA,CULLMAN,CST-6,EF2,2.0,2.5,350.0,0,0,,StormEvents_details-ftp_v1.0_d2020_c20260323.csv.gz,2020
885083,2020-04-12 20:16:00,-88.134,31.798,-88.1225,31.8035,ALABAMA,CLARKE,CST-6,EF1,1.0,0.77,100.0,0,0,,StormEvents_details-ftp_v1.0_d2020_c20260323.csv.gz,2020
887615,2020-04-12 20:27:00,-86.459,34.2201,-86.4254,34.2253,ALABAMA,BLOUNT,CST-6,EF0,0.0,1.94,150.0,0,0,0.0,StormEvents_details-ftp_v1.0_d2020_c20260323.csv.gz,2020
886293,2020-04-12 20:30:00,-86.4253,34.2253,-86.3737,34.234,ALABAMA,MARSHALL,CST-6,EF1,1.0,3.03,200.0,0,0,,StormEvents_details-ftp_v1.0_d2020_c20260323.csv.gz,2020
887616,2020-04-12 20:41:00,-87.6583,32.0443,-87.6234,32.069,ALABAMA,MARENGO,CST-6,EF1,1.0,2.69,1000.0,0,0,0.0,StormEvents_details-ftp_v1.0_d2020_c20260323.csv.gz,2020
885085,2020-04-12 20:44:00,-87.6234,32.069,-87.5508,32.1162,ALABAMA,WILCOX,CST-6,EF1,1.0,5.36,1000.0,0,0,,StormEvents_details-ftp_v1.0_d2020_c20260323.csv.gz,2020
889259,2020-04-12 20:45:00,-84.8377,34.8098,-84.7686,34.9251,GEORGIA,MURRAY,EST-5,EF2,2.0,8.88,860.0,8,24,500000.0,StormEvents_details-ftp_v1.0_d2020_c20260323.csv.gz,2020
886312,2020-04-12 20:50:00,-85.612,34.8349,-85.5789,34.8372,ALABAMA,DEKALB,CST-6,EF1,1.0,1.95,154.0,0,0,,StormEvents_details-ftp_v1.0_d2020_c20260323.csv.gz,2020
887617,2020-04-12 21:14:00,-87.2012,32.7317,-87.1826,32.7622,ALABAMA,PERRY,CST-6,EF1,1.0,2.42,350.0,0,0,0.0,StormEvents_details-ftp_v1.0_d2020_c20260323.csv.gz,2020
886310,2020-04-12 21:22:00,-85.856,34.2744,-85.8027,34.2988,ALABAMA,DEKALB,CST-6,EF0,0.0,3.56,110.0,0,0,,StormEvents_details-ftp_v1.0_d2020_c20260323.csv.gz,2020
887619,2020-04-12 21:27:00,-86.9515,32.244,-86.9016,32.2791,ALABAMA,DALLAS,CST-6,EF0,0.0,3.8,400.0,0,0,0.0,StormEvents_details-ftp_v1.0_d2020_c20260323.csv.gz,2020
889264,2020-04-12 21:54:00,-85.5789,34.8372,-85.4851,34.8621,GEORGIA,DADE,EST-5,EF1,1.0,5.59,350.0,0,0,700000.0,StormEvents_details-ftp_v1.0_d2020_c20260323.csv.gz,2020
889274,2020-04-12 22:15:00,-85.2582,34.9407,-85.1908,34.9859,GEORGIA,CATOOSA,EST-5,EF1,1.0,4.93,580.0,0,0,250000.0,StormEvents_details-ftp_v1.0_d2020_c20260323.csv.gz,2020
876337,2020-04-12 22:19:00,-85.1907,34.986,-85.0089,35.095,TENNESSEE,HAMILTON,EST-5,EF3,3.0,12.75,1500.0,2,18,0.0,StormEvents_details-ftp_v1.0_d2020_c20260323.csv.gz,2020
888670,2020-04-12 22:31:00,-85.0089,35.095,-84.9816,35.104,TENNESSEE,BRADLEY,EST-5,EF0,0.0,1.66,800.0,0,0,0.0,StormEvents_details-ftp_v1.0_d2020_c20260323.csv.gz,2020
877262,2020-04-12 22:45:00,-84.864,35.1613,-84.8125,35.1561,TENNESSEE,BRADLEY,EST-5,EF2,2.0,3.04,500.0,0,6,,StormEvents_details-ftp_v1.0_d2020_c20260323.csv.gz,2020
877263,2020-04-12 22:50:00,-84.8242,35.1663,-84.7461,35.1977,TENNESSEE,BRADLEY,EST-5,EF1,1.0,5.09,500.0,0,0,,StormEvents_details-ftp_v1.0_d2020_c20260323.csv.gz,2020
877264,2020-04-12 22:55:00,-84.7751,35.2046,-84.7013,35.2132,TENNESSEE,BRADLEY,EST-5,EF1,1.0,4.21,500.0,0,0,,StormEvents_details-ftp_v1.0_d2020_c20260323.csv.gz,2020
888675,2020-04-12 22:59:00,-84.7013,35.2132,-84.6927,35.2159,TENNESSEE,POLK,EST-5,EF0,0.0,0.52,500.0,0,0,0.0,StormEvents_details-ftp_v1.0_d2020_c20260323.csv.gz,2020
889282,2020-04-12 23:31:00,-85.3675,34.1239,-85.3653,34.1244,GEORGIA,FLOYD,EST-5,EF0,0.0,0.13,50.0,0,0,10000.0,StormEvents_details-ftp_v1.0_d2020_c20260323.csv.gz,2020
889284,2020-04-12 23:42:00,-85.1735,34.1924,-85.1424,34.2311,GEORGIA,FLOYD,EST-5,EF0,0.0,3.21,50.0,0,0,10000.0,StormEvents_details-ftp_v1.0_d2020_c20260323.csv.gz,2020
889288,2020-04-13 00:06:00,-84.8285,34.1492,-84.678,34.2857,GEORGIA,BARTOW,EST-5,EF1,1.0,12.76,250.0,1,2,100000.0,StormEvents_details-ftp_v1.0_d2020_c20260323.csv.gz,2020
889291,2020-04-13 00:32:00,-84.6028,34.3524,-84.6013,34.3626,GEORGIA,CHEROKEE,EST-5,EF1,1.0,0.71,100.0,0,0,250000.0,StormEvents_details-ftp_v1.0_d2020_c20260323.csv.gz,2020
889312,2020-04-13 00:53:00,-84.7924,32.7279,-84.7321,32.7476,GEORGIA,HARRIS,EST-5,EF0,0.0,3.76,50.0,0,0,20000.0,StormEvents_details-ftp_v1.0_d2020_c20260323.csv.gz,2020
889323,2020-04-13 01:08:00,-84.5144,32.7516,-84.4762,32.7794,GEORGIA,TALBOT,EST-5,EF0,0.0,2.94,100.0,0,0,25000.0,StormEvents_details-ftp_v1.0_d2020_c20260323.csv.gz,2020
889325,2020-04-13 01:19:00,-84.3335,32.8496,-84.1225,32.9896,GEORGIA,UPSON,EST-5,EF3,3.0,15.6,1200.0,0,0,300000.0,StormEvents_details-ftp_v1.0_d2020_c20260323.csv.gz,2020
889327,2020-04-13 01:33:00,-84.1225,32.9896,-84.1056,32.9943,GEORGIA,LAMAR,EST-5,EF0,0.0,1.03,200.0,0,0,5000.0,StormEvents_details-ftp_v1.0_d2020_c20260323.csv.gz,2020
893066,2020-04-13 01:36:00,-84.5263,33.6288,-84.4824,33.6425,GEORGIA,FULTON,EST-5,EF0,0.0,2.75,50.0,0,0,50000.0,StormEvents_details-ftp_v1.0_d2020_c20260323.csv.gz,2020
893078,2020-04-13 01:40:00,-84.033,33.0298,-83.9576,33.0729,GEORGIA,MONROE,EST-5,EF3,3.0,5.3,300.0,0,1,10000000.0,StormEvents_details-ftp_v1.0_d2020_c20260323.csv.gz,2020
893086,2020-04-13 01:49:00,-83.6449,33.456,-83.6349,33.4591,GEORGIA,HALL,EST-5,EF0,0.0,0.61,50.0,0,0,10000.0,StormEvents_details-ftp_v1.0_d2020_c20260323.csv.gz,2020
886042,2020-04-13 01:50:00,-83.635,34.459,-83.552,34.485,GEORGIA,HABERSHAM,EST-5,EF1,1.0,5.06,200.0,0,0,20000.0,StormEvents_details-ftp_v1.0_d2020_c20260323.csv.gz,2020
893088,2020-04-13 01:56:00,-83.5535,34.4846,-83.4822,34.4853,GEORGIA,BANKS,EST-5,EF1,1.0,4.1,200.0,0,0,100000.0,StormEvents_details-ftp_v1.0_d2020_c20260323.csv.gz,2020
893091,2020-04-13 02:00:00,-83.7718,32.873,-83.717,32.8997,GEORGIA,BIBB,EST-5,EF1,1.0,3.68,300.0,0,0,250000.0,StormEvents_details-ftp_v1.0_d2020_c20260323.csv.gz,2020
886043,2020-04-13 02:01:00,-83.481,34.485,-83.458,34.485,GEORGIA,HABERSHAM,EST-5,EF0,0.0,1.31,200.0,0,0,0.0,StormEvents_details-ftp_v1.0_d2020_c20260323.csv.gz,2020
886044,2020-04-13 02:03:00,-83.457,34.485,-83.401,34.492,GEORGIA,STEPHENS,EST-5,EF0,0.0,3.23,200.0,0,0,0.0,StormEvents_details-ftp_v1.0_d2020_c20260323.csv.gz,2020
886058,2020-04-13 02:07:00,-83.367,34.513,-83.219,34.546,GEORGIA,STEPHENS,EST-5,EF1,1.0,8.73,500.0,0,0,20000.0,StormEvents_details-ftp_v1.0_d2020_c20260323.csv.gz,2020
893095,2020-04-13 02:18:00,-83.4961,33.3098,-83.3082,33.4111,GEORGIA,PUTNAM,EST-5,EF1,1.0,12.91,300.0,0,0,100000.0,StormEvents_details-ftp_v1.0_d2020_c20260323.csv.gz,2020
886150,2020-04-13 02:18:00,-83.055,34.99,-82.986,35.0,SOUTH CAROLINA,OCONEE,EST-5,EF1,1.0,3.97,400.0,0,0,0.0,StormEvents_details-ftp_v1.0_d2020_c20260323.csv.gz,2020
886100,2020-04-13 02:21:00,-83.084,34.617,-82.857,34.719,SOUTH CAROLINA,OCONEE,EST-5,EF3,3.0,14.7,1000.0,1,5,100000000.0,StormEvents_details-ftp_v1.0_d2020_c20260323.csv.gz,2020
886135,2020-04-13 02:34:00,-82.857,34.719,-82.826,34.733,SOUTH CAROLINA,PICKENS,EST-5,EF0,0.0,2.01,200.0,0,0,0.0,StormEvents_details-ftp_v1.0_d2020_c20260323.csv.gz,2020
893102,2020-04-13 02:38:00,-83.228,33.4443,-83.1439,33.5048,GEORGIA,GREENE,EST-5,EF1,1.0,6.4,350.0,0,0,500000.0,StormEvents_details-ftp_v1.0_d2020_c20260323.csv.gz,2020
886204,2020-04-13 02:41:00,-82.667,34.966,-82.595,35.015,SOUTH CAROLINA,PICKENS,EST-5,EF2,2.0,5.3,200.0,0,8,200000.0,StormEvents_details-ftp_v1.0_d2020_c20260323.csv.gz,2020
886198,2020-04-13 02:44:00,-82.638,34.817,-82.516,34.856,SOUTH CAROLINA,PICKENS,EST-5,EF0,0.0,7.42,70.0,0,0,0.0,StormEvents_details-ftp_v1.0_d2020_c20260323.csv.gz,2020
886207,2020-04-13 02:46:00,-82.594,35.015,-82.558,35.04,SOUTH CAROLINA,GREENVILLE,EST-5,EF2,2.0,2.67,200.0,0,0,100000.0,StormEvents_details-ftp_v1.0_d2020_c20260323.csv.gz,2020
893105,2020-04-13 03:01:00,-82.9698,32.8329,-82.9414,32.8359,GEORGIA,WASHINGTON,EST-5,EF0,0.0,1.66,50.0,0,0,20000.0,StormEvents_details-ftp_v1.0_d2020_c20260323.csv.gz,2020
887085,2020-04-13 03:01:00,-82.295,34.992,-82.288,35.0,SOUTH CAROLINA,GREENVILLE,EST-5,EF0,0.0,0.68,30.0,0,0,20000.0,StormEvents_details-ftp_v1.0_d2020_c20260323.csv.gz,2020
893107,2020-04-13 03:05:00,-82.8228,33.1199,-82.7912,33.1557,GEORGIA,WASHINGTON,EST-5,EF0,0.0,3.08,100.0,0,0,50000.0,StormEvents_details-ftp_v1.0_d2020_c20260323.csv.gz,2020
893108,2020-04-13 03:12:00,-82.7831,33.1992,-82.7681,33.2066,GEORGIA,WASHINGTON,EST-5,EF0,0.0,1.01,100.0,0,0,50000.0,StormEvents_details-ftp_v1.0_d2020_c20260323.csv.gz,2020
893111,2020-04-13 03:18:00,-82.6972,32.8613,-82.5109,32.9154,GEORGIA,WASHINGTON,EST-5,EF1,1.0,11.44,220.0,0,0,250000.0,StormEvents_details-ftp_v1.0_d2020_c20260323.csv.gz,2020
893112,2020-04-13 03:29:00,-82.5109,32.9154,-82.4719,32.8919,GEORGIA,JEFFERSON,EST-5,EF0,0.0,2.78,220.0,0,0,20000.0,StormEvents_details-ftp_v1.0_d2020_c20260323.csv.gz,2020
884324,2020-04-13 03:53:00,-82.1918,33.1066,-81.9452,33.2265,GEORGIA,BURKE,EST-5,EF2,2.0,16.49,700.0,0,0,,StormEvents_details-ftp_v1.0_d2020_c20260323.csv.gz,2020
884156,2020-04-13 04:21:00,-81.7048,33.2751,-81.4285,33.4481,SOUTH CAROLINA,AIKEN,EST-5,EF3,3.0,19.93,800.0,0,0,,StormEvents_details-ftp_v1.0_d2020_c20260323.csv.gz,2020
884325,2020-04-13 04:33:00,-81.5438,33.2754,-81.428,33.3512,SOUTH CAROLINA,BARNWELL,EST-5,EF3,3.0,8.49,50.0,0,0,,StormEvents_details-ftp_v1.0_d2020_c20260323.csv.gz,2020
890615,2020-04-13 04:36:00,-83.7,31.48,-83.6644,31.4831,GEORGIA,WORTH,EST-5,EF1,1.0,2.11,100.0,0,0,100000.0,StormEvents_details-ftp_v1.0_d2020_c20260323.csv.gz,2020
890617,2020-04-13 04:38:00,-83.6644,31.4831,-83.64,31.49,GEORGIA,TIFT,EST-5,EF1,1.0,1.51,100.0,0,0,100000.0,StormEvents_details-ftp_v1.0_d2020_c20260323.csv.gz,2020
884163,2020-04-13 04:43:00,-81.3944,33.3158,-81.2651,33.4539,SOUTH CAROLINA,BARNWELL,EST-5,EF1,1.0,12.11,770.0,0,0,,StormEvents_details-ftp_v1.0_d2020_c20260323.csv.gz,2020
884158,2020-04-13 04:45:00,-81.4285,33.4481,-81.3436,33.4817,SOUTH CAROLINA,BARNWELL,EST-5,EF1,1.0,5.42,800.0,0,0,,StormEvents_details-ftp_v1.0_d2020_c20260323.csv.gz,2020
884326,2020-04-13 04:49:00,-81.2903,33.3177,-81.2833,33.3369,SOUTH CAROLINA,BARNWELL,EST-5,EF3,3.0,1.39,40.0,0,0,,StormEvents_details-ftp_v1.0_d2020_c20260323.csv.gz,2020
884327,2020-04-13 04:50:00,-81.2742,33.2071,-81.2223,33.2715,SOUTH CAROLINA,BARNWELL,EST-5,EF3,3.0,5.37,800.0,0,0,,StormEvents_details-ftp_v1.0_d2020_c20260323.csv.gz,2020
884159,2020-04-13 04:50:00,-81.3436,33.4817,-81.1379,33.5408,SOUTH CAROLINA,ORANGEBURG,EST-5,EF1,1.0,12.53,800.0,0,0,,StormEvents_details-ftp_v1.0_d2020_c20260323.csv.gz,2020
884164,2020-04-13 04:51:00,-81.2651,33.4539,-80.9394,33.6175,SOUTH CAROLINA,ORANGEBURG,EST-5,EF3,3.0,21.9,770.0,2,7,,StormEvents_details-ftp_v1.0_d2020_c20260323.csv.gz,2020
884332,2020-04-13 04:53:00,-80.919,34.1556,-80.8738,34.2157,SOUTH CAROLINA,RICHLAND,EST-5,EF1,1.0,4.89,80.0,0,0,,StormEvents_details-ftp_v1.0_d2020_c20260323.csv.gz,2020
887391,2020-04-13 04:58:00,-81.487,32.6516,-81.403,32.6659,GEORGIA,SCREVEN,EST-5,EF1,1.0,4.99,200.0,0,0,,StormEvents_details-ftp_v1.0_d2020_c20260323.csv.gz,2020
890582,2020-04-13 05:01:00,-83.32,31.5,-83.2875,31.5025,GEORGIA,IRWIN,EST-5,EF1,1.0,1.92,50.0,0,0,0.0,StormEvents_details-ftp_v1.0_d2020_c20260323.csv.gz,2020
887489,2020-04-13 05:04:00,-81.2167,33.0123,-81.1228,33.0434,SOUTH CAROLINA,ALLENDALE,EST-5,EF0,0.0,5.85,300.0,0,0,,StormEvents_details-ftp_v1.0_d2020_c20260323.csv.gz,2020
887456,2020-04-13 05:05:00,-81.403,32.6659,-81.3876,32.6681,SOUTH CAROLINA,HAMPTON,EST-5,EF1,1.0,0.91,200.0,0,0,0.0,StormEvents_details-ftp_v1.0_d2020_c20260323.csv.gz,2020
889068,2020-04-13 05:10:00,-81.2899,32.7045,-80.9092,32.829,SOUTH CAROLINA,HAMPTON,EST-5,EF4,4.0,23.73,1300.0,5,60,,StormEvents_details-ftp_v1.0_d2020_c20260323.csv.gz,2020
884165,2020-04-13 05:16:00,-80.9394,33.6175,-80.9115,33.624,SOUTH CAROLINA,CALHOUN,EST-5,EF0,0.0,1.67,770.0,0,0,,StormEvents_details-ftp_v1.0_d2020_c20260323.csv.gz,2020
884328,2020-04-13 05:25:00,-80.787,33.4032,-80.6797,33.4902,SOUTH CAROLINA,ORANGEBURG,EST-5,EF2,2.0,8.63,700.0,0,0,,StormEvents_details-ftp_v1.0_d2020_c20260323.csv.gz,2020
888610,2020-04-13 05:32:00,-79.3544,35.8943,-79.3052,35.9464,NORTH CAROLINA,ALAMANCE,EST-5,EF1,1.0,4.53,440.0,0,0,500000.0,StormEvents_details-ftp_v1.0_d2020_c20260323.csv.gz,2020
884329,2020-04-13 05:34:00,-80.6797,33.4902,-80.6716,33.5123,SOUTH CAROLINA,CALHOUN,EST-5,EF1,1.0,1.6,700.0,0,0,,StormEvents_details-ftp_v1.0_d2020_c20260323.csv.gz,2020
888614,2020-04-13 05:34:00,-79.9797,34.8826,-79.9774,34.8846,NORTH CAROLINA,ANSON,EST-5,EF2,2.0,0.19,75.0,0,0,600000.0,StormEvents_details-ftp_v1.0_d2020_c20260323.csv.gz,2020
888925,2020-04-13 05:39:00,-80.8539,32.8359,-80.8319,32.8454,SOUTH CAROLINA,COLLETON,EST-5,EF1,1.0,1.44,50.0,0,0,,StormEvents_details-ftp_v1.0_d2020_c20260323.csv.gz,2020
877341,2020-04-13 05:39:00,-82.96,31.55,-82.94,31.55,GEORGIA,COFFEE,EST-5,EF0,0.0,1.18,125.0,0,0,0.0,StormEvents_details-ftp_v1.0_d2020_c20260323.csv.gz,2020
888616,2020-04-13 05:45:00,-80.0284,34.8221,-79.8976,34.8912,NORTH CAROLINA,ANSON,EST-5,EF1,1.0,8.82,200.0,0,0,3000000.0,StormEvents_details-ftp_v1.0_d2020_c20260323.csv.gz,2020
888926,2020-04-13 05:46:00,-80.7459,32.8768,-80.7086,32.9098,SOUTH CAROLINA,COLLETON,EST-5,EF1,1.0,3.14,100.0,0,0,,StormEvents_details-ftp_v1.0_d2020_c20260323.csv.gz,2020
888947,2020-04-13 05:47:00,-80.7305,32.8791,-80.456,32.9784,SOUTH CAROLINA,COLLETON,EST-5,EF1,1.0,17.33,500.0,0,0,,StormEvents_details-ftp_v1.0_d2020_c20260323.csv.gz,2020
888951,2020-04-13 06:10:00,-80.3667,33.0211,-80.3331,33.0385,SOUTH CAROLINA,DORCHESTER,EST-5,EF1,1.0,2.29,150.0,0,0,,StormEvents_details-ftp_v1.0_d2020_c20260323.csv.gz,2020
877343,2020-04-13 06:25:00,-82.03,31.67,-81.95,31.68,GEORGIA,WAYNE,EST-5,EF1,1.0,4.75,440.0,0,8,0.0,StormEvents_details-ftp_v1.0_d2020_c20260323.csv.gz,2020
887488,2020-04-13 06:37:00,-81.8373,31.6923,-81.7829,31.6948,GEORGIA,LONG,EST-5,EF1,1.0,3.2,500.0,0,0,,StormEvents_details-ftp_v1.0_d2020_c20260323.csv.gz,2020
888412,2020-04-13 06:38:00,-79.9901,33.1816,-79.8947,33.2045,SOUTH CAROLINA,BERKELEY,EST-5,EF3,3.0,5.74,400.0,0,6,,StormEvents_details-ftp_v1.0_d2020_c20260323.csv.gz,2020
887392,2020-04-13 06:47:00,-81.6861,31.6877,-81.6803,31.6891,GEORGIA,LONG,EST-5,EF0,0.0,0.36,100.0,0,0,,StormEvents_details-ftp_v1.0_d2020_c20260323.csv.gz,2020
888413,2020-04-13 06:51:00,-79.794,33.1941,-79.7884,33.2067,SOUTH CAROLINA,BERKELEY,EST-5,EF0,0.0,0.93,200.0,0,0,,StormEvents_details-ftp_v1.0_d2020_c20260323.csv.gz,2020
888420,2020-04-13 07:00:00,-79.6559,33.2532,-79.6161,33.2675,SOUTH CAROLINA,BERKELEY,EST-5,EF1,1.0,2.5,400.0,0,0,,StormEvents_details-ftp_v1.0_d2020_c20260323.csv.gz,2020
885532,2020-04-13 07:10:00,-78.636,34.2306,-78.6321,34.2383,NORTH CAROLINA,COLUMBUS,EST-5,EF1,1.0,0.58,100.0,0,0,100000.0,StormEvents_details-ftp_v1.0_d2020_c20260323.csv.gz,2020
887437,2020-04-13 07:11:00,-81.3658,31.7592,-81.2691,31.7763,GEORGIA,LIBERTY,EST-5,EF1,1.0,5.8,250.0,0,0,,StormEvents_details-ftp_v1.0_d2020_c20260323.csv.gz,2020
885536,2020-04-13 07:13:00,-79.4727,33.3542,-79.404,33.3924,SOUTH CAROLINA,GEORGETOWN,EST-5,EF1,1.0,4.76,40.0,0,0,100000.0,StormEvents_details-ftp_v1.0_d2020_c20260323.csv.gz,2020
885537,2020-04-13 07:15:00,-79.4494,33.3471,-79.2792,33.4188,SOUTH CAROLINA,GEORGETOWN,EST-5,EF1,1.0,11.0,50.0,0,0,75000.0,StormEvents_details-ftp_v1.0_d2020_c20260323.csv.gz,2020
888410,2020-04-13 07:15:00,-80.343,32.4852,-80.3244,32.491,SOUTH CAROLINA,COLLETON,EST-5,EF2,2.0,1.16,140.0,0,0,,StormEvents_details-ftp_v1.0_d2020_c20260323.csv.gz,2020
887440,2020-04-13 07:18:00,-81.2691,31.7763,-81.2175,31.7852,GEORGIA,BRYAN,EST-5,EF0,0.0,3.09,250.0,0,0,,StormEvents_details-ftp_v1.0_d2020_c20260323.csv.gz,2020
888408,2020-04-13 07:28:00,-80.1811,32.5653,-80.1627,32.5745,SOUTH CAROLINA,CHARLESTON,EST-5,EF1,1.0,1.25,120.0,0,0,,StormEvents_details-ftp_v1.0_d2020_c20260323.csv.gz,2020
888409,2020-04-13 07:33:00,-80.1134,32.5969,-80.1085,32.5981,SOUTH CAROLINA,CHARLESTON,EST-5,EF1,1.0,0.3,60.0,0,0,,StormEvents_details-ftp_v1.0_d2020_c20260323.csv.gz,2020
885538,2020-04-13 07:36:00,-79.0906,33.4908,-79.0227,33.5247,SOUTH CAROLINA,GEORGETOWN,EST-5,EF2,2.0,4.56,50.0,0,0,20000.0,StormEvents_details-ftp_v1.0_d2020_c20260323.csv.gz,2020
885529,2020-04-13 08:09:00,-78.0595,34.4017,-77.9459,34.4629,NORTH CAROLINA,PENDER,EST-5,EF1,1.0,7.82,50.0,0,0,150000.0,StormEvents_details-ftp_v1.0_d2020_c20260323.csv.gz,2020
885558,2020-04-13 08:13:00,-77.9833,34.4315,-77.9453,34.4577,NORTH CAROLINA,PENDER,EST-5,EF1,1.0,2.82,50.0,0,0,100000.0,StormEvents_details-ftp_v1.0_d2020_c20260323.csv.gz,2020
885559,2020-04-13 08:19:00,-77.8675,34.5009,-77.8371,34.5334,NORTH CAROLINA,PENDER,EST-5,EF1,1.0,2.84,30.0,0,0,25000.0,StormEvents_details-ftp_v1.0_d2020_c20260323.csv.gz,2020
885560,2020-04-13 08:24:00,-77.7547,34.5543,-77.7295,34.5599,NORTH CAROLINA,PENDER,EST-5,EF0,0.0,1.49,30.0,0,0,2000.0,StormEvents_details-ftp_v1.0_d2020_c20260323.csv.gz,2020
885531,2020-04-13 08:32:00,-78.1659,33.9145,-78.1646,33.9149,NORTH CAROLINA,BRUNSWICK,EST-5,EF0,0.0,0.08,15.0,0,0,8000.0,StormEvents_details-ftp_v1.0_d2020_c20260323.csv.gz,2020
885561,2020-04-13 08:36:00,-78.0799,33.9053,-78.0752,33.9101,NORTH CAROLINA,BRUNSWICK,EST-5,EF0,0.0,0.42,15.0,0,0,15000.0,StormEvents_details-ftp_v1.0_d2020_c20260323.csv.gz,2020
876625,2020-04-13 08:36:00,-77.5726,34.6835,-77.5057,34.7406,NORTH CAROLINA,ONSLOW,EST-5,EF1,1.0,5.5,640.0,0,0,,StormEvents_details-ftp_v1.0_d2020_c20260323.csv.gz,2020
876626,2020-04-13 09:01:00,-77.2378,34.904,-77.2296,34.9117,NORTH CAROLINA,JONES,EST-5,EF0,0.0,0.7,75.0,0,0,,StormEvents_details-ftp_v1.0_d2020_c20260323.csv.gz,2020
876629,2020-04-13 09:05:00,-76.5537,35.8866,-76.5506,35.891,NORTH CAROLINA,WASHINGTON,EST-5,EF0,0.0,0.35,25.0,0,0,,StormEvents_details-ftp_v1.0_d2020_c20260323.csv.gz,2020
876630,2020-04-13 09:08:00,-77.1532,34.9586,-77.152,34.9592,NORTH CAROLINA,JONES,EST-5,EF0,0.0,0.08,60.0,0,0,,StormEvents_details-ftp_v1.0_d2020_c20260323.csv.gz,2020
877368,2020-04-13 09:09:00,-83.01,30.31,-82.96,30.32,FLORIDA,SUWANNEE,EST-5,EF0,0.0,3.06,175.0,0,0,0.0,StormEvents_details-ftp_v1.0_d2020_c20260323.csv.gz,2020
876631,2020-04-13 09:15:00,-76.7884,35.4346,-76.7835,35.4366,NORTH CAROLINA,BEAUFORT,EST-5,EF0,0.0,0.31,29.0,0,0,,StormEvents_details-ftp_v1.0_d2020_c20260323.csv.gz,2020
876632,2020-04-13 09:20:00,-76.9273,34.8988,-76.9249,34.9021,NORTH CAROLINA,CRAVEN,EST-5,EF0,0.0,0.27,75.0,0,0,,StormEvents_details-ftp_v1.0_d2020_c20260323.csv.gz,2020
889866,2020-04-13 12:47:00,-77.085,39.6087,-77.0782,39.6103,MARYLAND,CARROLL,EST-5,EF1,1.0,0.38,75.0,0,0,300000.0,StormEvents_details-ftp_v1.0_d2020_c20260323.csv.gz,2020
879694,2020-04-13 14:27:00,-75.8548,39.0642,-75.7644,39.0649,MARYLAND,CAROLINE,EST-5,EF0,0.0,4.85,30.0,0,0,0.0,StormEvents_details-ftp_v1.0_d2020_c20260323.csv.gz,2020
877504,2020-04-15 06:17:00,-81.6724,30.4415,-81.44,30.52,FLORIDA,DUVAL,EST-5,EF0,0.0,14.86,125.0,0,0,0.0,StormEvents_details-ftp_v1.0_d2020_c20260323.csv.gz,2020
881026,2020-04-17 21:53:00,-80.0616,26.5576,-80.0581,26.5685,FLORIDA,PALM BEACH,EST-5,EF0,0.0,0.83,75.0,0,0,,StormEvents_details-ftp_v1.0_d2020_c20260323.csv.gz,2020
880013,2020-04-19 13:17:00,-92.4865,31.6611,-92.4685,31.6857,LOUISIANA,GRANT,CST-6,EF1,1.0,2.0,500.0,0,0,0.0,StormEvents_details-ftp_v1.0_d2020_c20260323.csv.gz,2020
887039,2020-04-19 15:50:00,-93.3313,31.1666,-93.2415,31.1583,LOUISIANA,VERNON,CST-6,EF1,1.0,5.34,500.0,0,0,300000.0,StormEvents_details-ftp_v1.0_d2020_c20260323.csv.gz,2020
887095,2020-04-19 18:09:00,-89.9646,31.0707,-89.921,31.0734,MISSISSIPPI,WALTHALL,CST-6,EF1,1.0,2.59,500.0,0,0,0.0,StormEvents_details-ftp_v1.0_d2020_c20260323.csv.gz,2020
899721,2020-04-19 18:13:00,-89.9209,31.075,-89.6537,31.1348,MISSISSIPPI,MARION,CST-6,EF4,4.0,16.34,2275.0,1,0,400000.0,StormEvents_details-ftp_v1.0_d2020_c20260323.csv.gz,2020
899722,2020-04-19 18:34:00,-89.6537,31.1348,-89.3487,31.1833,MISSISSIPPI,LAMAR,CST-6,EF1,1.0,18.34,2207.0,0,0,200000.0,StormEvents_details-ftp_v1.0_d2020_c20260323.csv.gz,2020
899723,2020-04-19 18:58:00,-89.3487,31.1833,-89.1454,31.2125,MISSISSIPPI,FORREST,CST-6,EF1,1.0,12.19,1905.0,0,1,100000.0,StormEvents_details-ftp_v1.0_d2020_c20260323.csv.gz,2020
887428,2020-04-19 19:13:00,-89.1454,31.2125,-89.0792,31.2338,MISSISSIPPI,PERRY,CST-6,EF1,1.0,4.3,250.0,0,0,,StormEvents_details-ftp_v1.0_d2020_c20260323.csv.gz,2020
887096,2020-04-19 20:51:00,-89.5729,30.6783,-89.5294,30.6529,MISSISSIPPI,PEARL RIVER,CST-6,EF1,1.0,3.12,200.0,0,0,0.0,StormEvents_details-ftp_v1.0_d2020_c20260323.csv.gz,2020
887089,2020-04-19 21:13:00,-90.0845,30.3684,-90.0333,30.3666,LOUISIANA,ST. TAMMANY,CST-6,EF1,1.0,3.05,300.0,0,0,0.0,StormEvents_details-ftp_v1.0_d2020_c20260323.csv.gz,2020
886640,2020-04-19 21:49:00,-86.3955,31.3479,-86.38,31.3364,ALABAMA,COVINGTON,CST-6,EF2,2.0,1.21,300.0,0,0,,StormEvents_details-ftp_v1.0_d2020_c20260323.csv.gz,2020
886645,2020-04-19 21:55:00,-88.3781,30.7092,-88.2517,30.64,ALABAMA,MOBILE,CST-6,EF1,1.0,8.9,100.0,0,0,,StormEvents_details-ftp_v1.0_d2020_c20260323.csv.gz,2020
889391,2020-04-19 22:03:00,-85.974,31.543,-85.9112,31.5084,ALABAMA,COFFEE,CST-6,EF0,0.0,4.4,50.0,0,0,50000.0,StormEvents_details-ftp_v1.0_d2020_c20260323.csv.gz,2020
886641,2020-04-19 22:05:00,-88.3973,30.5771,-88.3756,30.5747,ALABAMA,MOBILE,CST-6,EF1,1.0,1.3,75.0,0,0,,StormEvents_details-ftp_v1.0_d2020_c20260323.csv.gz,2020
886644,2020-04-19 22:06:00,-88.2154,30.6684,-88.1781,30.6356,ALABAMA,MOBILE,CST-6,EF1,1.0,3.17,75.0,0,0,,StormEvents_details-ftp_v1.0_d2020_c20260323.csv.gz,2020
890441,2020-04-19 22:20:00,-85.63,31.46,-85.4178,31.4208,ALABAMA,DALE,CST-6,EF1,1.0,12.8,150.0,0,0,100000.0,StormEvents_details-ftp_v1.0_d2020_c20260323.csv.gz,2020
890573,2020-04-19 22:32:00,-85.78,31.1,-85.76,31.08,ALABAMA,GENEVA,CST-6,EF0,0.0,1.82,100.0,0,0,0.0,StormEvents_details-ftp_v1.0_d2020_c20260323.csv.gz,2020
890442,2020-04-19 22:35:00,-85.4178,31.4208,-85.2218,31.4289,ALABAMA,HENRY,CST-6,EF1,1.0,11.57,150.0,0,0,100000.0,StormEvents_details-ftp_v1.0_d2020_c20260323.csv.gz,2020
890571,2020-04-19 22:40:00,-85.279,31.3994,-85.2029,31.437,ALABAMA,HENRY,CST-6,EF2,2.0,5.18,300.0,1,0,0.0,StormEvents_details-ftp_v1.0_d2020_c20260323.csv.gz,2020
890575,2020-04-19 22:42:00,-85.46,31.21,-85.4519,31.2025,ALABAMA,HOUSTON,CST-6,EF1,1.0,0.71,50.0,0,0,50000.0,StormEvents_details-ftp_v1.0_d2020_c20260323.csv.gz,2020
890563,2020-04-19 22:45:00,-85.2142,31.4007,-85.1916,31.4103,ALABAMA,HENRY,CST-6,EF1,1.0,1.49,500.0,0,0,250000.0,StormEvents_details-ftp_v1.0_d2020_c20260323.csv.gz,2020
886646,2020-04-19 22:46:00,-87.5818,30.5903,-87.5741,30.5887,ALABAMA,BALDWIN,CST-6,EF1,1.0,0.47,300.0,0,0,,StormEvents_details-ftp_v1.0_d2020_c20260323.csv.gz,2020
890569,2020-04-19 22:46:00,-85.2619,31.4455,-85.1526,31.4486,ALABAMA,HENRY,CST-6,EF1,1.0,6.45,100.0,0,0,5000.0,StormEvents_details-ftp_v1.0_d2020_c20260323.csv.gz,2020
886649,2020-04-19 23:07:00,-87.187,30.6079,-87.1839,30.607,FLORIDA,SANTA ROSA,CST-6,EF0,0.0,0.19,50.0,0,0,,StormEvents_details-ftp_v1.0_d2020_c20260323.csv.gz,2020
890613,2020-04-20 01:10:00,-84.0,31.42,-83.9981,31.4242,GEORGIA,MITCHELL,EST-5,EF2,2.0,0.31,500.0,0,0,100000.0,StormEvents_details-ftp_v1.0_d2020_c20260323.csv.gz,2020
890614,2020-04-20 01:11:00,-83.9981,31.4242,-83.8621,31.4607,GEORGIA,WORTH,EST-5,EF2,2.0,8.41,500.0,0,0,250000.0,StormEvents_details-ftp_v1.0_d2020_c20260323.csv.gz,2020
878626,2020-04-20 08:35:00,-82.1517,29.0165,-82.1576,29.0122,FLORIDA,MARION,EST-5,EF1,1.0,0.46,500.0,0,0,0.0,StormEvents_details-ftp_v1.0_d2020_c20260323.csv.gz,2020
879116,2020-04-20 08:39:00,-82.69,28.79,-82.5755,28.802,FLORIDA,CITRUS,EST-5,EF0,0.0,7.25,35.0,0,0,100000.0,StormEvents_details-ftp_v1.0_d2020_c20260323.csv.gz,2020
880353,2020-04-20 10:45:00,-81.2418,28.7186,-81.1965,28.7188,FLORIDA,SEMINOLE,EST-5,EF0,0.0,2.74,25.0,0,0,0.0,StormEvents_details-ftp_v1.0_d2020_c20260323.csv.gz,2020
881522,2020-04-21 14:05:00,-74.0667,40.0003,-74.0593,39.9986,NEW JERSEY,OCEAN,EST-5,EF0,0.0,0.41,20.0,0,0,,StormEvents_details-ftp_v1.0_d2020_c20260323.csv.gz,2020
890610,2020-04-21 22:28:00,-98.091,34.711,-98.089,34.711,OKLAHOMA,COMANCHE,CST-6,EFU,,0.11,100.0,0,0,0.0,StormEvents_details-ftp_v1.0_d2020_c20260323.csv.gz,2020
890611,2020-04-21 22:29:00,-98.089,34.711,-98.086,34.711,OKLAHOMA,GRADY,CST-6,EF1,1.0,0.18,100.0,0,0,50000.0,StormEvents_details-ftp_v1.0_d2020_c20260323.csv.gz,2020
890612,2020-04-21 22:43:00,-97.974,34.668,-97.947,34.662,OKLAHOMA,STEPHENS,CST-6,EF1,1.0,1.6,100.0,0,0,75000.0,StormEvents_details-ftp_v1.0_d2020_c20260323.csv.gz,2020
890616,2020-04-22 15:17:00,-97.283,34.672,-97.246,34.6635,OKLAHOMA,GARVIN,CST-6,EF1,1.0,2.2,600.0,0,0,200000.0,StormEvents_details-ftp_v1.0_d2020_c20260323.csv.gz,2020
890622,2020-04-22 15:23:00,-97.141,34.331,-97.141,34.331,OKLAHOMA,CARTER,CST-6,EF0,0.0,0.1,20.0,0,0,2000.0,StormEvents_details-ftp_v1.0_d2020_c20260323.csv.gz,2020
890644,2020-04-22 15:24:00,-97.126,34.3385,-97.062,34.376,OKLAHOMA,CARTER,CST-6,EF2,2.0,4.6,600.0,0,0,0.0,StormEvents_details-ftp_v1.0_d2020_c20260323.csv.gz,2020
890646,2020-04-22 15:36:00,-97.062,34.376,-97.06,34.377,OKLAHOMA,MURRAY,CST-6,EF1,1.0,0.13,150.0,0,0,0.0,StormEvents_details-ftp_v1.0_d2020_c20260323.csv.gz,2020
890650,2020-04-22 15:45:00,-96.8194,34.0491,-96.8194,34.0491,OKLAHOMA,MARSHALL,CST-6,EFU,,0.2,50.0,0,0,0.0,StormEvents_details-ftp_v1.0_d2020_c20260323.csv.gz,2020
890652,2020-04-22 15:53:00,-96.813,34.0705,-96.74,34.07,OKLAHOMA,MARSHALL,CST-6,EF2,2.0,4.25,400.0,2,1,500000.0,StormEvents_details-ftp_v1.0_d2020_c20260323.csv.gz,2020
890654,2020-04-22 16:10:00,-96.641,34.0665,-96.619,34.061,OKLAHOMA,MARSHALL,CST-6,EF0,0.0,1.4,50.0,0,0,20000.0,StormEvents_details-ftp_v1.0_d2020_c20260323.csv.gz,2020
890657,2020-04-22 16:26:00,-96.504,34.39,-96.418,34.399,OKLAHOMA,JOHNSTON,CST-6,EF1,1.0,5.0,100.0,0,0,100000.0,StormEvents_details-ftp_v1.0_d2020_c20260323.csv.gz,2020
890659,2020-04-22 16:32:00,-96.392,34.0665,-96.301,34.069,OKLAHOMA,BRYAN,CST-6,EF1,1.0,5.21,500.0,0,0,100000.0,StormEvents_details-ftp_v1.0_d2020_c20260323.csv.gz,2020
889030,2020-04-22 16:35:00,-95.1824,30.8409,-94.704,30.881,TEXAS,POLK,CST-6,EF3,3.0,28.51,1100.0,3,33,5000000.0,StormEvents_details-ftp_v1.0_d2020_c20260323.csv.gz,2020
890710,2020-04-22 16:52:00,-96.221,34.068,-96.242,34.068,OKLAHOMA,BRYAN,CST-6,EF1,1.0,1.2,30.0,0,0,20000.0,StormEvents_details-ftp_v1.0_d2020_c20260323.csv.gz,2020
890718,2020-04-22 16:59:00,-96.3,34.42,-96.3,34.42,OKLAHOMA,COAL,CST-6,EF0,0.0,0.1,30.0,0,0,0.0,StormEvents_details-ftp_v1.0_d2020_c20260323.csv.gz,2020
886672,2020-04-22 17:35:00,-95.7308,33.8089,-95.654,33.8037,TEXAS,LAMAR,CST-6,EF1,1.0,4.45,510.0,0,0,5000.0,StormEvents_details-ftp_v1.0_d2020_c20260323.csv.gz,2020
886675,2020-04-22 17:51:00,-95.4799,33.8169,-95.3066,33.8421,TEXAS,LAMAR,CST-6,EF2,2.0,10.16,810.0,0,0,75000.0,StormEvents_details-ftp_v1.0_d2020_c20260323.csv.gz,2020
880279,2020-04-22 18:04:00,-95.3106,33.8412,-95.3066,33.8421,TEXAS,RED RIVER,CST-6,EF0,0.0,0.24,20.0,0,0,0.0,StormEvents_details-ftp_v1.0_d2020_c20260323.csv.gz,2020
887013,2020-04-22 18:28:00,-93.8965,30.9325,-93.8661,30.9349,TEXAS,JASPER,CST-6,EF2,2.0,1.81,600.0,0,0,300000.0,StormEvents_details-ftp_v1.0_d2020_c20260323.csv.gz,2020
887014,2020-04-22 18:30:00,-93.8661,30.9349,-93.5469,30.9596,TEXAS,NEWTON,CST-6,EF2,2.0,18.99,600.0,0,0,75000.0,StormEvents_details-ftp_v1.0_d2020_c20260323.csv.gz,2020
887047,2020-04-22 18:56:00,-93.5469,30.9596,-93.2843,30.9794,LOUISIANA,VERNON,CST-6,EF2,2.0,15.62,500.0,0,0,100000.0,StormEvents_details-ftp_v1.0_d2020_c20260323.csv.gz,2020
887040,2020-04-22 20:09:00,-92.6814,31.1285,-92.5682,31.2026,LOUISIANA,RAPIDES,CST-6,EF2,2.0,8.43,500.0,0,0,150000.0,StormEvents_details-ftp_v1.0_d2020_c20260323.csv.gz,2020
887044,2020-04-22 20:26:00,-92.4582,31.1623,-92.3103,31.1922,LOUISIANA,RAPIDES,CST-6,EF2,2.0,8.98,550.0,1,0,1000000.0,StormEvents_details-ftp_v1.0_d2020_c20260323.csv.gz,2020
887042,2020-04-22 20:27:00,-92.4355,31.1222,-92.373,31.1379,LOUISIANA,RAPIDES,CST-6,EF1,1.0,3.85,500.0,0,0,100000.0,StormEvents_details-ftp_v1.0_d2020_c20260323.csv.gz,2020
887842,2020-04-22 20:42:00,-92.2562,31.2166,-92.2328,31.2197,LOUISIANA,RAPIDES,CST-6,EF1,1.0,1.4,200.0,0,0,100000.0,StormEvents_details-ftp_v1.0_d2020_c20260323.csv.gz,2020
887844,2020-04-22 20:44:00,-92.2328,31.2197,-92.1677,31.2335,LOUISIANA,AVOYELLES,CST-6,EF1,1.0,3.96,200.0,0,0,50000.0,StormEvents_details-ftp_v1.0_d2020_c20260323.csv.gz,2020
901823,2020-04-22 21:06:00,-91.9671,31.2412,-91.9638,31.2417,LOUISIANA,CATAHOULA,CST-6,EF0,0.0,0.2,50.0,0,0,3000.0,StormEvents_details-ftp_v1.0_d2020_c20260323.csv.gz,2020
887858,2020-04-22 21:07:00,-91.9638,31.2417,-91.9509,31.2451,LOUISIANA,AVOYELLES,CST-6,EF1,1.0,0.8,1200.0,0,0,50000.0,StormEvents_details-ftp_v1.0_d2020_c20260323.csv.gz,2020
901828,2020-04-22 21:08:00,-91.9509,31.2451,-91.9374,31.2493,LOUISIANA,CATAHOULA,CST-6,EF1,1.0,0.85,75.0,0,0,12000.0,StormEvents_details-ftp_v1.0_d2020_c20260323.csv.gz,2020
887861,2020-04-22 21:09:00,-91.9374,31.2493,-91.868,31.2786,LOUISIANA,AVOYELLES,CST-6,EF1,1.0,4.57,1200.0,0,0,5000.0,StormEvents_details-ftp_v1.0_d2020_c20260323.csv.gz,2020
901833,2020-04-22 21:16:00,-91.868,31.2786,-91.8528,31.2899,LOUISIANA,CATAHOULA,CST-6,EF1,1.0,1.19,75.0,0,0,12000.0,StormEvents_details-ftp_v1.0_d2020_c20260323.csv.gz,2020
901858,2020-04-22 21:17:00,-91.8805,31.2927,-91.861,31.301,LOUISIANA,CATAHOULA,CST-6,EF1,1.0,1.28,300.0,0,0,8000.0,StormEvents_details-ftp_v1.0_d2020_c20260323.csv.gz,2020
901875,2020-04-22 21:19:00,-91.861,31.301,-91.8279,31.3286,LOUISIANA,CONCORDIA,CST-6,EF1,1.0,2.73,880.0,0,0,25000.0,StormEvents_details-ftp_v1.0_d2020_c20260323.csv.gz,2020
887852,2020-04-23 00:08:00,-92.2519,30.9483,-92.1929,30.9619,LOUISIANA,AVOYELLES,CST-6,EF2,2.0,3.62,100.0,0,0,1000000.0,StormEvents_details-ftp_v1.0_d2020_c20260323.csv.gz,2020
887854,2020-04-23 00:20:00,-92.1011,30.9677,-92.0823,30.9704,LOUISIANA,AVOYELLES,CST-6,EF1,1.0,1.13,100.0,0,0,50000.0,StormEvents_details-ftp_v1.0_d2020_c20260323.csv.gz,2020
887857,2020-04-23 00:51:00,-92.4418,30.3997,-92.3096,30.4774,LOUISIANA,ACADIA,CST-6,EF1,1.0,9.53,150.0,0,0,50000.0,StormEvents_details-ftp_v1.0_d2020_c20260323.csv.gz,2020
899718,2020-04-23 00:57:00,-90.1136,32.1744,-89.9212,32.2037,MISSISSIPPI,RANKIN,CST-6,EF0,0.0,11.43,1230.0,0,0,30000.0,StormEvents_details-ftp_v1.0_d2020_c20260323.csv.gz,2020
887009,2020-04-23 02:07:00,-90.7432,31.2047,-90.5483,31.2441,MISSISSIPPI,AMITE,CST-6,EF2,2.0,11.9,1760.0,0,0,100000.0,StormEvents_details-ftp_v1.0_d2020_c20260323.csv.gz,2020
997710,2020-04-23 02:21:00,-90.5483,31.2047,-90.446,31.2705,MISSISSIPPI,PIKE,CST-6,EF1,1.0,6.4,1760.0,0,0,,StormEvents_details-ftp_v1.0_d2020_c20260323.csv.gz,2020
899719,2020-04-23 02:57:00,-90.037,31.318,-89.9271,31.3208,MISSISSIPPI,MARION,CST-6,EF0,0.0,6.49,200.0,0,0,20000.0,StormEvents_details-ftp_v1.0_d2020_c20260323.csv.gz,2020
899720,2020-04-23 03:14:00,-89.2247,31.7608,-88.9447,31.8141,MISSISSIPPI,JONES,CST-6,EF2,2.0,16.85,2640.0,0,0,300000.0,StormEvents_details-ftp_v1.0_d2020_c20260323.csv.gz,2020
886475,2020-04-23 03:33:00,-88.8782,31.8116,-88.8505,31.8226,MISSISSIPPI,WAYNE,CST-6,EF1,1.0,1.8,350.0,0,0,,StormEvents_details-ftp_v1.0_d2020_c20260323.csv.gz,2020
886476,2020-04-23 05:17:00,-88.6208,30.9349,-88.5828,30.9371,MISSISSIPPI,GEORGE,CST-6,EF1,1.0,2.26,200.0,0,0,,StormEvents_details-ftp_v1.0_d2020_c20260323.csv.gz,2020
886584,2020-04-23 05:23:00,-88.5195,30.9381,-88.5131,30.9387,MISSISSIPPI,GEORGE,CST-6,EF1,1.0,0.38,50.0,0,0,,StormEvents_details-ftp_v1.0_d2020_c20260323.csv.gz,2020
886585,2020-04-23 05:24:00,-88.5243,30.9322,-88.4999,30.9332,MISSISSIPPI,GEORGE,CST-6,EF1,1.0,1.45,250.0,0,1,,StormEvents_details-ftp_v1.0_d2020_c20260323.csv.gz,2020
886586,2020-04-23 05:37:00,-88.3089,30.9642,-88.2999,30.9662,ALABAMA,MOBILE,CST-6,EF1,1.0,0.55,75.0,0,0,,StormEvents_details-ftp_v1.0_d2020_c20260323.csv.gz,2020
885251,2020-04-23 07:42:00,-86.57,31.063,-86.5638,31.0627,ALABAMA,COVINGTON,CST-6,EF0,0.0,0.37,50.0,0,0,,StormEvents_details-ftp_v1.0_d2020_c20260323.csv.gz,2020
885252,2020-04-23 07:53:00,-86.2524,31.0665,-86.2524,31.0665,ALABAMA,COVINGTON,CST-6,EF0,0.0,0.01,25.0,0,0,,StormEvents_details-ftp_v1.0_d2020_c20260323.csv.gz,2020
890133,2020-04-23 11:05:00,-84.1624,31.1314,-84.1238,31.1206,GEORGIA,MITCHELL,EST-5,EF1,1.0,2.4,176.0,0,0,100000.0,StormEvents_details-ftp_v1.0_d2020_c20260323.csv.gz,2020
890108,2020-04-23 11:34:00,-83.95,31.13,-83.5569,31.1308,GEORGIA,COLQUITT,EST-5,EF1,1.0,23.25,650.0,0,0,100000.0,StormEvents_details-ftp_v1.0_d2020_c20260323.csv.gz,2020
890129,2020-04-23 11:53:00,-83.5569,31.1308,-83.321,31.1464,GEORGIA,COOK,EST-5,EF1,1.0,13.99,650.0,0,0,100000.0,StormEvents_details-ftp_v1.0_d2020_c20260323.csv.gz,2020
890103,2020-04-23 12:28:00,-82.9832,31.093,-82.9699,31.0945,GEORGIA,LANIER,EST-5,EF0,0.0,0.79,25.0,0,0,0.0,StormEvents_details-ftp_v1.0_d2020_c20260323.csv.gz,2020
879073,2020-04-23 12:32:00,-82.9699,31.0945,-82.946,31.0992,GEORGIA,CLINCH,EST-5,EF0,0.0,1.45,50.0,0,0,0.0,StormEvents_details-ftp_v1.0_d2020_c20260323.csv.gz,2020
879279,2020-04-23 13:05:00,-82.47,31.22,-82.32,31.24,GEORGIA,WARE,EST-5,EF0,0.0,8.97,50.0,0,0,0.0,StormEvents_details-ftp_v1.0_d2020_c20260323.csv.gz,2020
885253,2020-04-23 13:51:00,-86.6463,30.4442,-86.6014,30.4386,FLORIDA,OKALOOSA,CST-6,EF1,1.0,2.7,50.0,0,0,,StormEvents_details-ftp_v1.0_d2020_c20260323.csv.gz,2020
879314,2020-04-23 13:59:00,-81.6689,31.1892,-81.6611,31.1905,GEORGIA,GLYNN,EST-5,EF0,0.0,0.47,50.0,0,0,0.0,StormEvents_details-ftp_v1.0_d2020_c20260323.csv.gz,2020
890618,2020-04-23 14:13:00,-86.12,30.71,-86.0378,30.7093,FLORIDA,WALTON,CST-6,EF1,1.0,4.88,100.0,0,0,100000.0,StormEvents_details-ftp_v1.0_d2020_c20260323.csv.gz,2020
890624,2020-04-23 14:17:00,-86.0378,30.7093,-85.9674,30.7126,FLORIDA,HOLMES,CST-6,EF1,1.0,4.19,100.0,0,0,100000.0,StormEvents_details-ftp_v1.0_d2020_c20260323.csv.gz,2020
879322,2020-04-23 14:37:00,-81.65,31.04,-81.6452,31.0413,GEORGIA,CAMDEN,EST-5,EF0,0.0,0.3,50.0,0,0,0.0,StormEvents_details-ftp_v1.0_d2020_c20260323.csv.gz,2020
890625,2020-04-23 14:48:00,-85.59,30.72,-85.4329,30.7287,FLORIDA,WASHINGTON,CST-6,EF2,2.0,9.35,400.0,0,0,250000.0,StormEvents_details-ftp_v1.0_d2020_c20260323.csv.gz,2020
890628,2020-04-23 15:00:00,-85.81,30.18,-85.5886,30.1485,FLORIDA,BAY,CST-6,EF0,0.0,13.4,75.0,0,0,50000.0,StormEvents_details-ftp_v1.0_d2020_c20260323.csv.gz,2020
890627,2020-04-23 15:00:00,-85.4329,30.7287,-85.3,30.73,FLORIDA,JACKSON,CST-6,EF2,2.0,7.89,400.0,0,0,250000.0,StormEvents_details-ftp_v1.0_d2020_c20260323.csv.gz,2020
890632,2020-04-23 15:09:00,-85.65,30.29,-85.6349,30.2907,FLORIDA,BAY,CST-6,EF0,0.0,0.9,50.0,0,0,0.0,StormEvents_details-ftp_v1.0_d2020_c20260323.csv.gz,2020
890636,2020-04-23 17:22:00,-84.35,30.52,-84.1755,30.5495,FLORIDA,LEON,EST-5,EF1,1.0,10.58,600.0,0,0,10000.0,StormEvents_details-ftp_v1.0_d2020_c20260323.csv.gz,2020
890638,2020-04-23 17:54:00,-84.26,30.25,-84.1966,30.2394,FLORIDA,WAKULLA,EST-5,EF1,1.0,3.85,100.0,0,0,25000.0,StormEvents_details-ftp_v1.0_d2020_c20260323.csv.gz,2020
890639,2020-04-23 18:56:00,-83.6,29.83,-83.5924,29.8293,FLORIDA,TAYLOR,EST-5,EF1,1.0,0.46,100.0,0,0,50000.0,StormEvents_details-ftp_v1.0_d2020_c20260323.csv.gz,2020
879325,2020-04-23 20:11:00,-82.87,29.84,-82.86,29.8412,FLORIDA,GILCHRIST,EST-5,EF0,0.0,0.6,50.0,0,0,0.0,StormEvents_details-ftp_v1.0_d2020_c20260323.csv.gz,2020
878298,2020-04-24 13:08:00,-93.31,39.21,-93.31,39.21,MISSOURI,SALINE,CST-6,EF0,0.0,0.02,50.0,0,0,0.0,StormEvents_details-ftp_v1.0_d2020_c20260323.csv.gz,2020
887038,2020-04-24 17:40:00,-96.2085,33.7199,-96.0716,33.7299,TEXAS,FANNIN,CST-6,EF2,2.0,7.94,425.0,0,1,500000.0,StormEvents_details-ftp_v1.0_d2020_c20260323.csv.gz,2020
887041,2020-04-24 18:08:00,-95.93,33.7,-95.9284,33.7009,TEXAS,FANNIN,CST-6,EFU,,0.11,50.0,0,0,0.0,StormEvents_details-ftp_v1.0_d2020_c20260323.csv.gz,2020
887043,2020-04-24 18:13:00,-95.88,33.69,-95.8791,33.6901,TEXAS,FANNIN,CST-6,EFU,,0.05,50.0,0,0,0.0,StormEvents_details-ftp_v1.0_d2020_c20260323.csv.gz,2020
888029,2020-04-24 20:09:00,-93.8201,35.6489,-93.8113,35.649,ARKANSAS,FRANKLIN,CST-6,EF1,1.0,0.5,75.0,0,0,0.0,StormEvents_details-ftp_v1.0_d2020_c20260323.csv.gz,2020
880634,2020-04-25 12:25:00,-87.9351,37.9969,-87.9285,37.9979,INDIANA,POSEY,CST-6,EF0,0.0,0.37,40.0,0,0,0.0,StormEvents_details-ftp_v1.0_d2020_c20260323.csv.gz,2020
